ClientID,Age,AnnualIncome,PurchaseAmount,PurchaseFrequency,CustomerSatisfaction,Region,Ville,Latitude,Longitude,Population,Altitude,DiscountApplied,OrderMethod,PaymentMethod,ShippingCost
Client_5187,43.0,17794.395400318987,1468.1323535936408,0.8834745273481935,1.5855816685381914,Cantal,Vieillespesse,45.127,3.152,251.0,1023.0,False,Online,PayPal,14.901314132179033
Client_33039,39.0,12340.486256796845,288.8676696156789,0.8856536545895664,0.5437951793944382,Vienne,Pouançay,47.081,-0.073,233.0,54.0,False,Online,PayPal,5.933829064168638
Client_26776,39.0,21228.799178935362,552.3267289059604,2.14896348145733,5.538681793984919,Haut-Rhin,Kingersheim,47.79,7.334,13178.0,235.0,False,In-store,Credit Card,18.38091136544567
Client_9910,40.0,33779.87121635512,633.6724722338315,1.2075672899334493,2.3055507384170446,Eure-et-Loir,Abondant,48.785,1.44,2427.0,132.0,True,In-store,Bank Transfer,12.529952622402739
Client_5550,63.0,22640.18436328443,328.579390715243,2.8833121634649994,3.5563670383447006,Charente,Vindelle,45.72,0.121,1062.0,55.0,True,Online,Credit Card,17.512979624021533
Client_27177,26.0,2647.0282302831984,562.6269719936114,2.4794375855460364,1.6192640769569526,Rhône,Saint-Jean-la-Bussière,46.001,4.324,1187.0,496.0,False,Online,Credit Card,11.45335786234754
Client_10084,38.0,26663.753695167256,476.2421872902397,1.372217880450291,1.863101866248293,Eure-et-Loir,Landelles,48.467,1.201,634.0,192.0,False,In-store,Bank Transfer,5.9373677526931345
Client_14747,79.0,13731.668889159111,765.6048348692243,0.9787073865155199,0.7902647714222102,Jura,Frasne-les-Meulières,47.205,5.501,107.0,240.0,False,Mobile App,Bank Transfer,21.055029097111852
Client_20821,76.0,65467.95958491425,223.04491699046983,1.0920937307387724,3.221835345699753,Moselle,Bellange,48.901,6.577,55.0,249.0,True,Online,Bank Transfer,19.76773798868535
Client_1100,55.0,29549.17627296279,238.7312596738365,3.518529618593434,0.8309076705969822,Aisne,Thenelles,49.831,3.468,541.0,93.0,True,Online,Credit Card,8.092503963097784
Client_21126,23.0,37272.864678565995,1302.847458106811,1.8356693233946204,0.006498602155962541,Moselle,Laneuveville-en-Saulnois,48.868,6.434,283.0,296.0,False,In-store,Credit Card,5.994844936368523
Client_6493,66.0,30104.019479801038,872.062757180844,0.135929922411771,1.8924818906243135,Corrèze,Saint-Bonnet-près-Bort,45.502,2.414,189.0,702.0,True,In-store,Bank Transfer,6.880390672623985
Client_26021,78.0,95588.6756623633,3016.8443769664937,1.7908333515759423,2.907725686315901,Pyrénées-Orientales,Porté-Puymorens,42.548,1.832,104.0,2121.0,True,Online,Bank Transfer,19.473917413822974
Client_16537,43.0,33717.30784959529,751.6253041422106,1.6145311679317045,1.384369806567829,Loiret,Dordives,48.145,2.768,3263.0,85.0,False,In-store,Bank Transfer,15.104242673812918
Client_25163,79.0,56911.93726192576,600.7930184495331,1.6715367918085127,1.7942032662556642,Pyrénées-Atlantiques,Lalongue,43.478,-0.19,202.0,244.0,True,Mobile App,PayPal,14.90805137771289
Client_19882,63.0,50176.411173902,775.7037750694456,1.3191082954148055,1.7526579249808014,Meurthe-et-Moselle,Royaumeix,48.779,5.869,407.0,238.0,True,Online,PayPal,21.71426920035396
Client_7715,44.0,50863.78753354617,1253.6412681341121,2.048279657148743,8.67573790991536,Creuse,Fleurat,46.242,1.68,310.0,419.0,True,Mobile App,Credit Card,17.248874091994015
Client_9111,57.0,72962.17219362457,499.61471820670147,2.004501000670212,1.1812662272695458,Drôme,La Laupie,44.61,4.847,762.0,170.0,True,In-store,Credit Card,20.40438101747149
Client_6302,18.0,11751.151104018667,851.55734282084,2.7719229556248273,6.9187059556167,Cher,Villegenon,47.426,2.605,213.0,283.0,True,Mobile App,Credit Card,18.511525583912917
Client_14063,65.0,69649.42434574573,1406.1533857984277,3.52482514695769,1.984156831885512,Isère,Bernin,45.27,5.866,3126.0,352.0,False,Mobile App,Credit Card,16.182077519653305
Client_12790,75.0,72500.46811331023,242.89531748525343,1.7031218585414494,0.1936117998898128,Gironde,Saucats,44.651,-0.598,3388.0,62.0,True,Mobile App,Credit Card,13.180297893209513
Client_10792,59.0,14903.040578123157,315.01952178329066,1.5698954475406528,1.8831921794645545,Haute-Corse,Olmeta-di-Capocorso,42.769,9.372,130.0,545.0,False,Online,Credit Card,16.033638728061923
Client_24796,45.0,69873.07207621924,320.9862669549408,1.7524598779658356,2.451118267654408,Puy-de-Dôme,Saint-Yvoine,45.585,3.236,572.0,468.0,True,Mobile App,Credit Card,15.55074651638259
Client_2796,67.0,56848.44796923018,984.2354072041379,3.137015909864995,1.1675901289547888,Ardennes,Ville-sur-Retourne,49.396,4.443,76.0,115.0,False,Online,Credit Card,17.528063323402225
Client_26171,20.0,-998.2723556565564,998.5631642584898,1.1457757509725435,2.589920622387437,Bas-Rhin,Châtenois,48.272,7.4,4235.0,220.0,False,In-store,Bank Transfer,10.98602393683582
Client_16626,26.0,39632.703811244326,535.6579572513982,2.334250957740006,6.700442131558462,Loiret,Neuville-aux-Bois,48.068,2.053,4981.0,128.0,True,Online,Credit Card,13.821703183657144
Client_28343,41.0,48980.55655167079,190.80258386897773,1.6308976672824953,7.164705607744008,Saône-et-Loire,Vérissey,46.712,5.119,56.0,203.0,True,Mobile App,PayPal,26.296375335762946
Client_20978,77.0,68696.8258243099,824.3024799936863,1.3945150302365392,1.0376685088539102,Moselle,Fontoy,49.356,6.0,3142.0,301.0,True,Mobile App,PayPal,22.73330789408589
Client_15543,59.0,37890.53576564164,889.1299963972634,2.186764872411927,2.4402428590531144,Loir-et-Cher,Saint-Amand-Longpré,47.689,1.016,1209.0,124.0,False,Online,Credit Card,14.726833236285566
Client_1417,39.0,37422.06430407751,450.6742395735704,1.849419626546305,0.32009273979227393,Allier,Saint-Étienne-de-Vicq,46.178,3.534,527.0,359.0,False,In-store,Credit Card,11.946873299851509
Client_8457,35.0,57681.64872745504,1378.846657688551,1.5028545198707117,2.7583732332685926,Doubs,Bonnétage,47.185,6.723,993.0,893.0,True,Online,PayPal,16.48197603640692
Client_20975,32.0,48963.60415684362,1273.5359191166194,1.6611251433784469,1.3787857515999276,Moselle,Folkling,49.148,6.894,1374.0,317.0,True,Online,Credit Card,
Client_2391,52.0,12281.54556177757,471.31863474325064,1.4116132250971871,3.846103936361009,Ardennes,Auge,49.86,4.27,58.0,238.0,True,Online,Bank Transfer,13.791989993672452
Client_29739,72.0,24545.112962548246,357.1749785545439,1.201647867245481,3.0050257615558813,Seine-Maritime,Ocqueville,49.802,0.69,445.0,102.0,True,Online,PayPal,14.283077370052169
Client_26147,38.0,36926.415924472254,217.56333314311536,2.026793650184764,4.026831814417886,Bas-Rhin,Bitschhoffen,48.859,7.619,460.0,198.0,True,Mobile App,Bank Transfer,25.536418224853207
Client_22074,25.0,35229.70042858811,412.5805996280013,1.4615498582761917,6.8314271344628565,Nord,Hasnon,50.424,3.387,3874.0,17.0,True,Mobile App,Bank Transfer,20.562655453859264
Client_3735,28.0,71132.67717467857,574.9840691608308,2.2405575411477123,3.7923884037708513,Aude,Gramazie,43.139,2.097,127.0,226.0,True,Online,PayPal,17.85373667259621
Client_14742,67.0,44898.87120341777,540.0873094900148,3.414511909527027,0.9453301362584074,Jura,Foucherans,47.084,5.456,2279.0,226.0,True,Mobile App,Credit Card,13.46901128452035
Client_24607,28.0,5795.218364822073,1165.4636784019935,1.2274284184415092,4.441255491921128,Puy-de-Dôme,Marsac-en-Livradois,45.479,3.73,1412.0,640.0,False,In-store,Credit Card,17.446154406631756
Client_25845,37.0,40193.432119939614,783.0410969461669,1.5976737715305507,6.267178019447066,Hautes-Pyrénées,Tournay,43.184,0.245,1230.0,354.0,True,Mobile App,Bank Transfer,14.363603017212393
Client_12958,74.0,41408.857489376525,485.3599790551158,1.274607245893385,2.911272100444422,Hérault,Gignac,43.653,3.551,6650.0,115.0,True,Online,PayPal,12.95374511402623
Client_21859,25.0,30780.337367429962,467.62702796263557,1.7768032596694259,6.532162937113353,Nord,Bellaing,50.367,3.426,1329.0,35.0,True,Online,Credit Card,16.003574412271774
Client_32466,37.0,33685.5180726839,1169.1137116670684,2.64460683909141,7.484088860050048,Vaucluse,Beaumes-de-Venise,44.122,5.028,2389.0,140.0,False,Mobile App,Credit Card,21.704318292080426
Client_26131,75.0,51734.524900094664,99.69577756903209,1.1057577378189787,0.9639007523045171,Bas-Rhin,Bergbieten,48.576,7.458,732.0,218.0,True,Online,PayPal,19.01340588856051
Client_22655,32.0,42405.38730318074,765.8377793247752,2.41701829366705,6.199594030031925,Oise,Ernemont-Boutavent,49.592,1.801,189.0,187.0,True,In-store,Credit Card,16.479614516356293
Client_26701,22.0,14647.317523899046,756.4672553581249,1.1526697227044833,7.528072661086851,Haut-Rhin,Feldkirch,47.866,7.276,1000.0,235.0,True,Online,Bank Transfer,19.64397139195374
Client_31485,39.0,32419.246416047663,348.23775832631145,0.9856834240189499,1.5496799030294204,Somme,Machy,50.272,1.796,118.0,38.0,False,In-store,Bank Transfer,11.919023348154713
Client_17269,75.0,60244.363938876435,214.8648479446207,2.8108520389727962,0.5083057937634559,Lot-et-Garonne,Puymirol,44.187,0.795,905.0,110.0,True,Mobile App,Credit Card,14.270961802913162
Client_9997,61.0,57188.2204914984,571.2936777051557,2.3148523002808137,1.2041837463691767,Eure-et-Loir,Clévilliers,48.543,1.389,742.0,198.0,True,In-store,Credit Card,15.15722649435758
Client_547,62.0,66915.06597610819,196.2529561000018,0.2893212338645509,1.4646958901222291,Aisne,La Chapelle-sur-Chézy,48.947,3.378,298.0,205.0,False,In-store,Bank Transfer,12.407131281533589
Client_8775,39.0,35864.40771564288,42.58307979337951,2.7655792496086606,0.788454027707477,Doubs,Onans,47.501,6.609,357.0,408.0,False,Mobile App,Credit Card,11.72327448583622
Client_13100,66.0,44097.370386809656,34.3782231634489,0.38546636412268453,1.6444161500346492,Hérault,Saint-Geniès-des-Mourgues,43.697,4.035,2077.0,47.0,False,Online,Bank Transfer,24.207651563632556
Client_22577,66.0,27562.23417776166,695.368894025488,1.4608058363147085,4.548371979493963,Oise,Cauvigny,49.301,2.248,1630.0,112.0,True,Online,Bank Transfer,10.371051005217677
Client_23064,35.0,28625.47012467818,99.72095919267997,1.097833549410828,1.2197085341406337,Oise,Thury-sous-Clermont,49.357,2.325,672.0,111.0,True,Online,Bank Transfer,15.615902008111838
Client_26717,56.0,24016.33429024504,42.866037258751135,0.5632871917286577,0.9229932860654468,Haut-Rhin,Geiswasser,47.976,7.604,317.0,196.0,False,In-store,PayPal,16.462261707651187
Client_30672,42.0,45278.17555775523,248.21323445817495,1.259993921328839,2.9499364946636017,Yvelines,Montfort-l'Amaury,48.778,1.809,2870.0,149.0,False,In-store,Bank Transfer,8.853132304882273
Client_1189,58.0,24742.140418452902,876.054400506072,1.311186754627315,0.13095133179730034,Aisne,Wimy,49.934,3.999,479.0,196.0,False,Online,PayPal,6.024281058614367
Client_18112,68.0,71277.15732761343,415.5615938369001,3.575633066220656,0.1588660978100045,Manche,Tanis,48.592,-1.442,278.0,27.0,True,Mobile App,Credit Card,9.809625430903589
Client_14523,55.0,44995.506509691586,1282.4163408052232,2.4498082347882852,2.3591610144079405,Isère,Villard-Bonnot,45.239,5.888,7331.0,248.0,True,In-store,Bank Transfer,20.293278419166086
Client_10637,77.0,50867.034923470004,1737.771945798401,2.2723857044134763,1.2212605854513656,Corse-du-Sud,Quenza,41.765,9.138,190.0,1105.0,True,Online,Bank Transfer,13.558088307503825
Client_29518,53.0,44054.48849881257,669.6293845499554,0.32938515350209235,3.8849622233419945,Seine-Maritime,Étaimpuis,49.642,1.16,850.0,156.0,True,Mobile App,PayPal,19.631632027811463
Client_22564,57.0,43495.20338364156,516.8946550426191,2.3495450279632246,3.227206131261175,Oise,Campeaux,49.62,1.756,487.0,210.0,False,Mobile App,Credit Card,18.64087058631622
Client_10449,46.0,40259.17471056612,897.0647818007492,1.637830638884573,4.443264751555045,Finistère,Plougonvelin,48.34,-4.718,4410.0,41.0,True,Mobile App,Bank Transfer,13.7998288767283
Client_29316,78.0,25167.93132140454,147.33772229398954,2.1387270814446127,1.5854116723567149,Seine-Maritime,Aubéguimont,49.808,1.673,182.0,197.0,False,Mobile App,PayPal,16.75283643293419
Client_26117,28.0,33278.102614591255,464.8491825881731,0.8061447458050234,3.294634043403504,Bas-Rhin,Asswiller,48.88,7.22,271.0,314.0,False,Online,Bank Transfer,18.4780961066351
Client_8843,76.0,55484.11947564877,1536.534754215196,3.1268509909813638,1.596483537732456,Doubs,Rondefontaine,46.733,6.182,38.0,1064.0,True,Mobile App,Credit Card,16.413149613420995
Client_26291,35.0,17630.216059136175,133.4277702448664,2.1846041678644137,2.711510019532602,Bas-Rhin,Hipsheim,48.467,7.673,1006.0,148.0,False,Mobile App,PayPal,12.189089897556418
Client_6557,44.0,36617.92423738533,1238.6670235953673,1.7247324147309178,0.4423191955299606,Corrèze,Sérilhac,45.089,1.728,273.0,367.0,False,In-store,Bank Transfer,14.419833087455709
Client_11677,26.0,35879.12293430316,419.2008344894592,1.1555622246015735,0.9536625734521289,Haute-Garonne,Pins-Justaret,43.479,1.382,4356.0,159.0,True,Online,Credit Card,12.256653837354126
Client_2711,29.0,42264.29748604089,274.5723860285894,1.5261473703487127,5.168656632273061,Ardennes,Saint-Menges,49.738,4.925,938.0,306.0,True,Mobile App,PayPal,16.79586358017668
Client_612,48.0,-17223.940575705237,506.2878028792493,2.516470232374278,4.788799812922102,Aisne,Courtemont-Varennes,49.074,3.543,349.0,109.0,True,Online,Credit Card,11.884487901659742
Client_10551,78.0,37957.85814173736,68.03298724913643,2.414577120018274,0.4017289603659311,Finistère,Pont-de-Buis-lès-Quimerch,48.255,-4.09,3595.0,97.0,False,Online,Credit Card,14.748472598240372
Client_15438,50.0,37064.05810541692,429.13891750858204,1.0909274710788945,3.9325564158951156,Loir-et-Cher,La Ferté-Imbault,47.386,1.954,954.0,106.0,True,Online,PayPal,16.296224224731276
Client_25903,25.0,19444.471381777974,154.5230475931333,2.3665463126787123,5.3466241744765135,Pyrénées-Orientales,Le Boulou,42.527,2.831,5321.0,121.0,True,In-store,Credit Card,5.71943590285478
Client_16441,74.0,24868.277103339176,599.455960200569,0.5378869910421217,1.0026349907037728,Loiret,Bazoches-les-Gallerandes,48.165,2.042,1504.0,132.0,False,In-store,Bank Transfer,12.068574378855876
Client_5761,32.0,6197.712271326565,334.7830361859415,0.2753165122852054,5.044524267987775,Charente-Maritime,Lozay,46.041,-0.547,144.0,65.0,True,Mobile App,Bank Transfer,13.626281906500207
Client_9219,42.0,55680.00016774563,619.0467243427013,2.00401965345378,2.10812294755132,Drôme,Rochefort-Samson,44.974,5.152,1038.0,528.0,False,Online,Bank Transfer,18.595423657004
Client_11046,34.0,30883.99248298645,886.1311732564391,1.470694036496235,2.5291844366966334,Gard,Langlade,43.806,4.247,2265.0,94.0,False,In-store,Bank Transfer,9.330598977782502
Client_15743,72.0,24151.955399708684,804.534442297985,0.24088439299497333,0.6478669645212669,Loire,Leigneux,45.751,3.976,359.0,481.0,False,Online,PayPal,22.303191107430063
Client_30362,38.0,1760.4841180755072,1011.0013257770207,0.6203867453588879,3.0733686092652945,Seine-et-Marne,Rampillon,48.551,3.065,831.0,133.0,False,In-store,Bank Transfer,14.895465841770783
Client_21226,69.0,52112.23340693593,65.4664077138006,1.4251859190016631,0.29971787313612186,Moselle,Moussey,48.674,6.781,562.0,252.0,False,Mobile App,PayPal,9.497813960315835
Client_10829,24.0,51705.80022829315,403.58261681311404,1.2911507731730576,2.9189411824611624,Haute-Corse,Poggio-d'Oletta,42.64,9.36,215.0,311.0,True,Mobile App,PayPal,11.859028607800791
Client_2683,39.0,5963.4430695022975,911.5981764071516,0.6315326824817995,8.788181463584223,Ardennes,Rethel,49.509,4.365,7425.0,95.0,True,Online,PayPal,21.252017818249755
Client_7467,67.0,-16434.504121038764,621.2560252813528,0.9943102627789855,1.458892802768247,Côtes-d'Armor,Plouaret,48.612,-3.473,2206.0,130.0,True,Mobile App,Credit Card,14.652549569577124
Client_20969,26.0,30610.404098547027,860.3876456475781,1.1410753345655915,5.912284185675788,Moselle,Fleisheim,48.789,7.162,140.0,304.0,True,In-store,PayPal,15.277305945925251
Client_26465,67.0,40814.69827097091,391.1372625239528,1.275176006820382,1.415154520848743,Bas-Rhin,Reipertswiller,48.933,7.464,844.0,305.0,True,Mobile App,Bank Transfer,14.036506495380173
Client_8242,48.0,50843.41340603751,850.3658280762736,1.8760894395648493,0.3013226868747213,Dordogne,Saint-Germain-de-Belvès,44.805,1.047,173.0,162.0,True,Online,Credit Card,9.791466670649687
Client_30037,18.0,45220.11003271254,489.2482188043428,1.301774526229006,7.395434576534786,Seine-et-Marne,Boissy-aux-Cailles,48.319,2.504,276.0,109.0,False,In-store,Bank Transfer,21.41342952764143
Client_7091,26.0,21717.10395152253,599.9512298560388,2.1309822839473656,5.571021047788692,Côte-d'Or,Quincey,47.11,4.972,502.0,217.0,True,In-store,Credit Card,14.349153996883224
Client_4539,54.0,58857.683087455574,595.4910259668314,1.304492123579335,2.8378903599050327,Calvados,Colleville-sur-Mer,49.348,-0.847,193.0,59.0,True,Online,Bank Transfer,16.87004232261781
Client_12380,46.0,71751.92039573527,31.3663282513688,1.7570467705309507,0.9092749920613201,Gironde,Brannens,44.52,-0.153,240.0,48.0,True,Online,PayPal,12.768863475260387
Client_34699,77.0,32890.55772463921,1355.8522728879577,1.7568106663230432,1.9884505038695885,Val-d'Oise,Bray-et-Lû,49.14,1.662,960.0,47.0,True,Online,Bank Transfer,5.487041780409589
Client_15995,77.0,27352.643712585512,975.2987069304384,2.666760813450415,0.09228735476110783,Haute-Loire,Brives-Charensac,45.047,3.926,4246.0,636.0,True,Online,Credit Card,13.549161504346314
Client_279,46.0,35895.68468863041,78.25194989221836,0.9401807205481915,7.4337760551306165,Ain,Saint-Alban,46.094,5.454,192.0,521.0,True,In-store,PayPal,20.218660796156346
Client_15435,25.0,31221.060165091887,868.1647767972803,1.2624050958520974,1.7996322587005604,Loir-et-Cher,Faverolles-sur-Cher,47.321,1.186,1401.0,103.0,True,In-store,Bank Transfer,17.362779177738176
Client_19151,30.0,30374.886024033774,924.7630433676561,2.9846965372415424,1.79820713940236,Haute-Marne,Vauxbons,47.883,5.156,54.0,394.0,True,Mobile App,Credit Card,12.303687907929884
Client_23349,48.0,56977.550259449206,249.64458219518042,1.020861141944497,0.6479297739213181,Orne,La Motte-Fouquet,48.568,-0.284,161.0,238.0,True,Online,PayPal,14.312855413900536
Client_10471,18.0,22401.937803343564,344.36387872076557,0.7829568868015917,9.89312792490896,Finistère,Plozévet,47.988,-4.425,2940.0,54.0,True,Online,PayPal,24.21002783869175
Client_29050,68.0,19189.654745696294,859.8929340534464,1.1713831391237282,0.6483845658420431,Haute-Savoie,Chavanod,45.884,6.052,2913.0,503.0,True,Mobile App,PayPal,8.313493397040315
Client_6317,79.0,60908.56246199321,1194.0120713370948,0.681388531964519,0.3102744078671559,Corrèze,Les Angles-sur-Corrèze,45.307,1.797,126.0,341.0,True,Mobile App,PayPal,15.27709021598919
Client_6066,43.0,39293.76987545772,181.88334527192382,1.314120557892692,0.09677353134848588,Cher,Cerbois,47.106,2.102,402.0,129.0,True,In-store,PayPal,17.132491286162683
Client_8059,58.0,59096.513925136554,590.4030790321824,1.7744098401271684,1.5990423595534962,Dordogne,Granges-d'Ans,45.212,1.121,145.0,263.0,False,Mobile App,Bank Transfer,15.396081345156222
Client_14771,57.0,56235.49650170036,872.5316158272524,0.7658531786035397,1.4288279623056668,Jura,Ivrey,46.991,5.895,60.0,524.0,True,In-store,PayPal,10.157045453675517
Client_14052,21.0,23488.35384349332,569.1318640279266,1.8825748050937432,0.7349625502601602,Isère,Barraux,45.434,5.977,1998.0,424.0,True,Mobile App,Bank Transfer,8.130850650296344
Client_5145,77.0,87274.550750025,927.724743803037,2.6016853856674493,4.01670567550359,Cantal,Saint-Simon,44.963,2.49,1126.0,820.0,True,Mobile App,Credit Card,17.04581459002661
Client_8831,22.0,34912.84007283122,977.1192847547071,0.9769867340671042,6.701356996213367,Doubs,Reugney,47.013,6.151,275.0,751.0,True,In-store,PayPal,16.375162602331336
Client_25173,72.0,38208.81473716993,110.20135501923843,1.2643408719618499,1.1982744238598566,Pyrénées-Atlantiques,Larressore,43.372,-1.436,2129.0,62.0,True,Online,Credit Card,10.231026816555568
Client_14881,58.0,22520.08629947838,353.2178717923557,1.6843225589872635,4.253182487946538,Jura,Ougney,47.24,5.668,413.0,241.0,False,Online,Credit Card,18.933599272110932
Client_18012,26.0,21129.613448769003,101.97257531273907,2.530301876638391,0.9377118939627405,Manche,Saint-Christophe-du-Foc,49.555,-1.742,414.0,80.0,False,In-store,Credit Card,9.023013906561193
Client_14870,59.0,41925.44136025214,514.1834347348014,0.806550446404768,2.195250014855244,Jura,Neuvilley,46.897,5.594,93.0,230.0,False,In-store,PayPal,17.236421745373207
Client_27099,65.0,38315.85454747933,901.0607713345289,2.3721452669161036,0.7797946532605762,Rhône,Lyon,45.764,4.836,522250.0,237.0,False,Online,Bank Transfer,12.712412632173088
Client_10276,25.0,11413.913044746505,145.40706793868776,1.819527056143348,3.6615798856849526,Finistère,Arzano,47.901,-3.44,1419.0,62.0,False,Mobile App,Bank Transfer,15.181289763968165
Client_17778,59.0,58961.04075203758,540.4659695924303,1.459039198059072,0.015042302028184018,Manche,Cerisy-la-Forêt,49.194,-0.937,1025.0,90.0,False,In-store,PayPal,14.765756695802393
Client_30270,63.0,28663.489721114158,659.0168803740759,2.4589204473457693,1.1769306081989015,Seine-et-Marne,Meaux,48.958,2.878,55616.0,58.0,False,Online,Credit Card,16.597545804766494
Client_14113,25.0,12345.34802604167,400.30030037280477,0.6697677674502102,7.0112194401084045,Isère,Châteauvilain,45.515,5.33,747.0,513.0,True,Mobile App,PayPal,18.599494059091146
Client_17433,72.0,48380.498858816754,1494.6130397681,0.9284162997658968,0.8454967478508939,Lozère,Hures-la-Parade,44.244,3.352,221.0,981.0,False,Online,PayPal,16.078350181765032
Client_27775,55.0,52429.06597244344,147.89716570952731,1.3714329090419597,0.4262253597279051,Haute-Saône,La Villeneuve-Bellenoye-et-la-Maize,47.708,6.249,150.0,265.0,True,Online,Credit Card,11.326312157542732
Client_17490,21.0,28156.68230189791,864.757265925719,0.11337592153301536,3.914763085734599,Lozère,Saint-Étienne-Vallée-Française,44.165,3.842,496.0,450.0,False,In-store,Bank Transfer,17.422937175650752
Client_26494,55.0,55555.86308982625,879.0941623038179,1.499703250377877,1.2877483664202325,Bas-Rhin,Saint-Jean-Saverne,48.769,7.37,534.0,294.0,False,Mobile App,Bank Transfer,8.235676584844457
Client_25179,75.0,56294.86919809307,788.0682773226995,1.2168966847866964,0.6500655962758071,Pyrénées-Atlantiques,Lasserre,43.514,-0.084,113.0,202.0,False,Mobile App,PayPal,17.583007776531446
Client_4102,26.0,67340.24349065372,688.6731178442265,1.4726122982388463,1.9358524874933725,Aveyron,La Fouillade,44.231,2.042,1104.0,394.0,True,In-store,PayPal,7.125807006899648
Client_32613,18.0,287.36439726699246,711.2111338334556,3.3488011962731092,5.754165769507958,Vendée,Auchay-sur-Vendée,46.442,-0.867,1134.0,26.0,False,In-store,Credit Card,18.719031352871866
Client_22527,74.0,42008.39037342243,446.4842741909456,3.1711304766921278,2.983373978182487,Oise,Bonnières,49.511,1.965,189.0,126.0,True,Online,Credit Card,22.545090705388702
Client_28187,38.0,53696.43424826054,1261.642461869983,1.3104461116287474,4.075547081476927,Saône-et-Loire,Saint-Denis-de-Vaux,46.796,4.696,270.0,321.0,True,Mobile App,Bank Transfer,15.722420897550576
Client_9805,54.0,50798.60336035153,840.3521526596783,2.037919031117188,2.5622641957204237,Eure,Saint-Martin-Saint-Firmin,49.288,0.56,338.0,117.0,False,Mobile App,Credit Card,12.787712014636005
Client_1063,43.0,27501.941740781167,953.3682324179192,1.018730448420027,1.2344952513734264,Aisne,Seboncourt,49.954,3.475,1084.0,147.0,False,Mobile App,PayPal,18.97664364071264
Client_27175,18.0,8332.994717759193,994.5940685641376,1.2608374706782002,4.408155137045233,Rhône,Saint-Igny-de-Vers,46.241,4.437,568.0,602.0,True,Mobile App,PayPal,13.35114698333568
Client_9375,62.0,86534.85688002962,384.9935752533754,1.2470396468526623,1.7241131630233228,Eure,Bernay,49.089,0.598,9622.0,147.0,False,In-store,Bank Transfer,24.190161236835152
Client_29861,27.0,-3360.005862112268,470.4951338184002,2.4633250929887844,1.6357119274624128,Seine-Maritime,Morienne,49.782,1.711,187.0,199.0,False,Online,Credit Card,17.759564291611483
Client_2534,46.0,23514.928096275748,411.2194390304502,1.4203292623623915,1.0895634709716813,Ardennes,Givron,49.648,4.289,91.0,139.0,True,Mobile App,PayPal,15.640709669603147
Client_31301,69.0,25180.498071577116,24.13359623172437,1.8501383805082916,0.8333818656431378,Somme,L'Étoile,50.02,2.046,1156.0,55.0,False,Online,Credit Card,9.42317410179649
Client_4685,22.0,10878.132614608961,476.7940870489915,1.6259876276191427,4.221223361484552,Calvados,Lion-sur-Mer,49.301,-0.314,2521.0,15.0,True,In-store,Bank Transfer,14.347892265860438
Client_32861,64.0,65150.965813656534,863.6803860659115,0.6537496934147035,3.0552309837267844,Vienne,Adriers,46.258,0.799,702.0,192.0,True,Online,PayPal,16.615877301160936
Client_11732,47.0,47787.26904264916,956.5430803238644,1.3333634394868812,1.3161290985630894,Haute-Garonne,Saint-Élix-Séglan,43.195,0.854,43.0,352.0,False,Mobile App,PayPal,17.6337973324809
Client_11512,32.0,9918.172629559303,168.99787190794652,2.3354131964859817,2.789525263988022,Haute-Garonne,Labastidette,43.459,1.245,2943.0,191.0,False,In-store,Credit Card,18.83436876325731
Client_1921,36.0,15737.951679344338,1037.369138741522,2.219196710576673,2.3000104344035144,Alpes-Maritimes,Drap,43.756,7.32,5238.0,235.0,False,In-store,Credit Card,15.639570073648976
Client_2932,53.0,42874.00002015314,944.05863938315,0.6226644940211558,2.740403536368145,Ariège,Fornex,43.167,1.248,110.0,315.0,True,Mobile App,PayPal,16.619037203110892
Client_12270,37.0,31095.681886689876,244.1182048627575,0.7247540149355313,1.9242436418594133,Gers,Sempesserre,44.015,0.648,304.0,113.0,False,In-store,Bank Transfer,18.45297625569841
Client_17852,56.0,28575.540447928553,917.3432231262516,1.4124073250768816,0.8602565580900849,Manche,Grosville,49.51,-1.743,799.0,100.0,False,Mobile App,PayPal,14.439118097731283
Client_7613,46.0,46098.34444446726,125.97009439067644,1.605415875985483,0.3887369712932146,Côtes-d'Armor,Trémeur,48.347,-2.263,797.0,63.0,True,Online,Credit Card,18.069387557722596
Client_28607,35.0,66097.33463170897,974.5034054590229,0.8376262051138119,0.8216507520412072,Sarthe,Saint-Aubin-des-Coudrais,48.172,0.588,913.0,130.0,True,Online,PayPal,12.892937724142957
Client_28165,28.0,31564.95996093376,1088.208752799114,3.18240473316801,0.5243899259687796,Saône-et-Loire,Sailly,46.534,4.569,71.0,281.0,False,Mobile App,Credit Card,7.579950262845556
Client_26965,60.0,37382.81827231946,775.388150145556,0.8351256516001994,1.3397046898215272,Haut-Rhin,Wettolsheim,48.057,7.298,1776.0,287.0,False,Mobile App,PayPal,17.719702659468155
Client_396,24.0,17667.239709232468,219.94680011079038,2.3837247392203293,3.4473237799025345,,Agnicourt-et-Séchelles,49.718,3.954,186.0,133.0,True,Mobile App,Credit Card,15.950102238930862
Client_10876,58.0,69092.67212643844,131.04712901483362,0.3810800682190211,3.8503565818817953,Haute-Corse,San-Nicolao,42.375,9.525,2033.0,126.0,True,Mobile App,Bank Transfer,15.845551617394449
Client_30354,76.0,28670.113366162754,635.6824764351779,1.454753102312872,1.1757606509068528,Seine-et-Marne,Pontcarré,48.8,2.704,2156.0,115.0,True,Online,Bank Transfer,10.710555177541186
Client_25876,35.0,25418.388882894287,3123.0931202411953,2.3197689703508853,0.29871902215086843,Hautes-Pyrénées,Viscos,42.91,-0.044,33.0,1235.0,False,Online,PayPal,14.89728705617196
Client_34543,62.0,-1211.2696935572696,212.09498153176506,1.0235532871284005,1.9388487564628765,Essonne,Wissous,48.732,2.327,6991.0,79.0,False,Online,PayPal,20.08802313158528
Client_4695,73.0,24643.796505005346,92.73400788881447,1.61910150554824,3.608261625751554,Calvados,Longueville,49.341,-0.959,277.0,28.0,True,Online,PayPal,18.433656885004304
Client_8145,55.0,22180.302914530082,95.45682898300805,2.0859718227565653,0.3195294264919166,Dordogne,Nailhac,45.226,1.153,293.0,254.0,True,Mobile App,PayPal,16.096472574855692
Client_25469,57.0,40326.770278090524,1309.9936632056565,1.7682968580703522,0.2537602133157293,Hautes-Pyrénées,Barbazan-Debat,43.196,0.118,3500.0,387.0,True,In-store,PayPal,9.23049108550946
Client_15501,55.0,34427.26011328626,657.6005469618045,2.121925062131739,2.6695646521681757,Loir-et-Cher,Montrichard Val de Cher,47.343,1.184,3645.0,114.0,True,In-store,PayPal,11.341509529402577
Client_23306,21.0,57508.487586200165,366.38113807081385,0.9846650249799307,6.581667024590822,Orne,La Madeleine-Bouvet,48.471,0.904,411.0,198.0,True,Mobile App,Bank Transfer,18.19484883512021
Client_27502,50.0,37808.23246361824,891.1689485087281,1.5620864778798424,2.779854789165773,Haute-Saône,Froideterre,47.707,6.532,364.0,316.0,False,Online,Bank Transfer,15.88405824990045
Client_22573,50.0,20270.728154868782,652.0265731125035,1.4998628111656764,1.1297701226947128,Oise,Catheux,49.652,2.121,103.0,137.0,True,In-store,Bank Transfer,14.754764633401463
Client_24095,30.0,51455.69101757213,111.55658818706382,0.856009053613261,3.44802501854414,Pas-de-Calais,Nabringhen,50.744,1.862,230.0,128.0,True,Mobile App,Bank Transfer,14.667768336425404
Client_33495,37.0,19922.258155525164,320.1579227124378,1.6304087410336032,0.8963293407036419,Vosges,Frain,48.086,5.878,126.0,359.0,False,Mobile App,Bank Transfer,10.532061886993354
Client_13011,75.0,82662.11060233718,289.5820790841053,0.9814882574476098,3.1731011219156136,Hérault,Montels,43.294,3.03,246.0,8.0,True,Online,PayPal,8.071654437960538
Client_26261,55.0,59530.41494990001,60.9759048624681,0.6255503973537212,2.832199289795536,Bas-Rhin,Grassendorf,48.819,7.612,255.0,249.0,False,Mobile App,Bank Transfer,21.08633871152399
Client_16758,78.0,74001.88591042743,1042.7043865707687,1.2291690164971272,4.642843631375081,Lot,Baladou,44.922,1.556,384.0,240.0,False,Online,Bank Transfer,11.719641891032238
Client_27045,21.0,34417.874376216074,424.35309194768115,1.695174380977154,2.160078778883708,Rhône,Corcelles-en-Beaujolais,46.155,4.724,984.0,203.0,False,In-store,Bank Transfer,6.789493525862444
Client_29455,56.0,31427.58264787198,19.0480399307568,1.550207873635265,3.0862905743143774,Seine-Maritime,Cliponville,49.676,0.659,252.0,123.0,True,Online,Credit Card,19.435325834133362
Client_10088,33.0,62080.731007479306,33.757919976302816,1.2155044830143344,1.4780200303489393,Eure-et-Loir,Lèves,48.469,1.481,5623.0,150.0,False,In-store,Bank Transfer,11.663619313848638
Client_26707,57.0,22993.142824570154,836.6652550906499,1.1936850812152302,1.5881945438447564,Haut-Rhin,Folgensbourg,47.549,7.444,915.0,449.0,False,Mobile App,PayPal,14.060794302033164
Client_7324,23.0,-7913.659472920613,115.57579714153047,1.0346963045919897,4.967147406702387,Côtes-d'Armor,Coëtmieux,48.491,-2.601,1812.0,61.0,True,In-store,Bank Transfer,16.58712103378224
Client_1169,61.0,33086.17527138775,1030.3475129244678,1.671725931229937,0.24767520821516875,Aisne,Villers-Hélon,49.263,3.262,199.0,150.0,False,Mobile App,Credit Card,17.292068746574863
Client_18944,43.0,23714.214155321424,959.2676342286394,0.6529428451413523,2.641962503049644,Haute-Marne,Hâcourt,48.164,5.574,41.0,364.0,False,Mobile App,Bank Transfer,8.449115613784368
Client_327,33.0,23280.898340937372,894.4392803232099,0.3439549979938942,3.6705310467714294,Ain,Sainte-Olive,46.019,4.934,331.0,289.0,True,Online,PayPal,26.767406446406476
Client_21943,29.0,38704.388824313966,573.2574652460323,0.7178076579890722,0.3006369252911574,Nord,Clary,50.079,3.401,1086.0,136.0,False,Mobile App,Bank Transfer,9.944839052109284
Client_28153,58.0,18945.38281644187,720.3554846089403,1.4108965264403739,2.213460458808522,Saône-et-Loire,Reclesne,47.04,4.27,292.0,367.0,True,In-store,PayPal,17.642374352987645
Client_20555,64.0,16186.176973096392,252.5257113868937,0.9969165696895986,1.4340403043323136,Morbihan,Concoret,48.064,-2.207,758.0,98.0,False,Mobile App,Bank Transfer,18.719723761646
Client_24730,35.0,50857.257153198225,1094.0354455822678,3.1058310388585184,4.04839044566012,Puy-de-Dôme,Saint-Éloy-la-Glacière,45.56,3.574,64.0,1015.0,False,Online,Credit Card,21.113847438962008
Client_30856,20.0,37091.80824702243,259.7372430572393,2.2342213141834173,4.242631955229079,Deux-Sèvres,La Foye-Monjault,46.188,-0.54,843.0,54.0,True,In-store,Credit Card,16.130922382076335
Client_17637,35.0,14591.031207598042,512.6890959525153,1.4193919420293004,1.6942070977267618,Maine-et-Loire,Le Plessis-Grammoire,47.501,-0.432,2622.0,34.0,False,In-store,Bank Transfer,15.90552146361352
Client_28237,36.0,28489.356214339594,534.9694404259708,1.083634965552373,0.6603829433577943,Saône-et-Loire,Saint-Martin-en-Bresse,46.818,5.06,1913.0,197.0,False,In-store,Bank Transfer,13.611805654228277
Client_30407,70.0,35054.549046150314,758.8291079770254,1.7792376214555465,1.170897835547244,Seine-et-Marne,Saint-Pathus,49.07,2.801,6358.0,101.0,False,Online,PayPal,16.83049663007884
Client_32035,69.0,85156.9932536099,421.5909658522987,1.2504505616049444,0.35150865316163615,Tarn,Saint-Germier,43.679,2.229,157.0,275.0,True,Mobile App,Credit Card,17.170260435251393
Client_33248,48.0,27185.33587903119,750.209885529734,1.399109238852546,4.0910467968371265,Haute-Vienne,Saint-Pardoux-le-Lac,46.078,1.202,1347.0,,False,In-store,Bank Transfer,15.749853860168011
Client_32626,51.0,16101.475881809612,100.03129166182568,1.0845903637271526,0.36507166578486583,Vendée,Le Bernard,46.439,-1.468,1293.0,26.0,False,Online,Bank Transfer,13.907382420139129
Client_26807,22.0,29677.57813512016,417.36264338711436,1.0798985561745278,6.05030276154755,Haut-Rhin,Magstatt-le-Bas,47.637,7.411,506.0,322.0,True,In-store,PayPal,14.593137574760412
Client_2345,19.0,19241.58330194061,2317.9718701058473,0.6970070736706809,9.627874986960833,Ardèche,Valgorge,44.59,4.123,417.0,946.0,False,Mobile App,Bank Transfer,28.433887565545305
Client_114,75.0,28815.166467628675,220.37301184206206,1.6818345266706742,0.8521365942195107,Ain,Crans,45.964,5.193,306.0,296.0,False,Online,PayPal,12.081108824309277
Client_26677,78.0,20972.631719660603,256.533127480415,1.5518955473321094,0.7211969840674717,Haut-Rhin,Cernay,47.808,7.179,11745.0,296.0,True,Online,PayPal,11.419232433275369
Client_13582,79.0,93727.0336697892,463.83446727905323,3.1843397094140915,4.458764549945688,Indre,Diou,47.046,2.027,262.0,145.0,True,Online,Credit Card,9.871466825285912
Client_30756,65.0,46191.43787059344,365.74949592744167,1.611816045388072,2.8986799238389995,Yvelines,Vieille-Église-en-Yvelines,48.67,1.875,612.0,171.0,True,Online,Bank Transfer,21.31388725065751
Client_30431,75.0,68123.84759429544,1019.9274342966,1.2892154123964756,2.7152233462754456,Seine-et-Marne,Sognolles-en-Montois,48.511,3.167,359.0,134.0,False,Online,Bank Transfer,13.600959236111278
Client_17594,74.0,51415.28924088918,652.7640344871318,1.60652701906867,0.9358539361421752,Maine-et-Loire,Feneu,47.571,-0.594,2202.0,41.0,False,Mobile App,Bank Transfer,9.444446221025979
Client_8628,67.0,59682.98497998539,854.7858025561335,2.8282216599378778,0.5514456190365848,Doubs,Geney,47.485,6.565,122.0,377.0,False,Online,Credit Card,6.526387251379367
Client_26643,76.0,44369.11089406823,850.8881075860993,0.3979134497605777,0.5993865517676298,Haut-Rhin,Bendorf,47.488,7.281,248.0,566.0,False,Online,PayPal,21.592989861490018
Client_23933,33.0,53777.366077510036,288.008208409231,3.018820826579064,4.193748842436487,Pas-de-Calais,Herlincourt,50.344,2.302,107.0,135.0,True,Mobile App,Credit Card,12.113810715953175
Client_3019,18.0,17499.144885209396,792.716909060307,0.8980913295987274,5.819075626880721,Ariège,Moulin-Neuf,43.074,1.944,238.0,353.0,False,In-store,PayPal,23.532584217436064
Client_9031,27.0,33202.50352798052,420.3648533334251,1.0211947421114977,3.2144847136480306,Drôme,Chantemerle-lès-Grignan,44.404,4.836,241.0,207.0,True,Online,Credit Card,11.713352983451392
Client_13092,65.0,39494.625251233396,314.763674153907,0.8557349809426875,1.2265145741061003,Hérault,Sainte-Croix-de-Quintillargues,43.774,3.909,955.0,152.0,True,Online,PayPal,10.392241490760785
Client_14361,20.0,26430.96814599481,222.9091163132622,3.4383782939078276,3.548961591501022,Isère,Sainte-Blandine,45.546,5.441,1001.0,428.0,False,In-store,Credit Card,17.651187259780585
Client_30264,71.0,79108.53808980066,665.5647384481986,1.8683490606930406,2.2636922162573008,Seine-et-Marne,Marolles-en-Brie,48.776,3.162,412.0,139.0,False,Online,Bank Transfer,22.111467615939713
Client_10875,69.0,51389.40660599493,1035.9715107322913,0.9182057875763362,0.3647812960447092,Haute-Corse,Santa-Maria-Poggio,42.34,9.539,792.0,230.0,True,Online,Bank Transfer,18.46634506316651
Client_10671,20.0,29215.1440732044,1366.5927933645664,1.3541495306558018,5.870455628568765,Corse-du-Sud,Zévaco,41.892,9.049,51.0,742.0,True,Online,PayPal,16.45726378403232
Client_16725,52.0,47883.56183459198,1221.948655235467,0.7796365342440637,0.26177053596719624,Loiret,Trinay,48.086,1.952,213.0,124.0,True,Mobile App,PayPal,9.794083592986311
Client_21097,71.0,21471.58194311555,216.56976160573942,1.6849587736319358,1.1833553619459884,Moselle,Jallaucourt,48.84,6.386,146.0,264.0,False,Mobile App,PayPal,19.366206796054342
Client_3302,37.0,39783.23409867859,72.65912115057986,0.4476207581759428,1.961940515911421,Aube,Les Granges,48.058,4.053,82.0,139.0,False,Online,Bank Transfer,16.799173640893226
Client_336,36.0,42250.24942718769,328.5633219533639,2.0648369768387025,0.5282299092966185,Ain,Salavre,46.364,5.346,284.0,315.0,False,Mobile App,PayPal,17.504338282390588
Client_11703,73.0,36149.23594134797,928.2360330361973,1.386917953989104,3.495785067331027,Haute-Garonne,Rebigue,43.489,1.473,482.0,235.0,True,Online,PayPal,20.490801269037046
Client_3724,56.0,29320.07526016514,877.4608427571054,2.708758403298793,2.2269553690785338,Aude,Fraisse-Cabardès,43.325,2.271,104.0,336.0,False,Online,Bank Transfer,20.33327886376427
Client_33597,39.0,70503.11945079944,1049.766800263153,1.4842201022147337,2.5410561858645186,Vosges,Martigny-les-Gerbonvaux,48.445,5.795,113.0,340.0,True,In-store,Bank Transfer,19.97139751856489
Client_8738,64.0,26993.335979546053,139.6435065115955,2.238093757733895,3.7597904360041365,Doubs,Montbéliard,47.51,6.798,25573.0,353.0,False,Mobile App,Bank Transfer,13.839603313962407
Client_17671,79.0,-6193.504630627279,62.23006442203874,1.4323762314739867,0.03541858293984723,Maine-et-Loire,Saumur,47.26,-0.076,26215.0,43.0,True,Mobile App,PayPal,18.340880048486664
Client_25701,53.0,28048.030512009933,34.84773559553366,2.157252130942126,2.725869508500084,Hautes-Pyrénées,Marsac,43.329,0.088,225.0,246.0,False,Online,Credit Card,5.6345968381734615
Client_33568,30.0,24178.020649038568,786.7496372681577,1.149697494561981,4.205008149620095,Vosges,Langley,48.359,6.325,148.0,296.0,True,Mobile App,Bank Transfer,12.323820842700108
Client_5184,25.0,50555.59894754061,1746.7712503152331,2.2653715257556177,3.7024698085009344,Cantal,Vèze,45.267,2.994,60.0,1208.0,True,Mobile App,PayPal,18.621465011920794
Client_14929,30.0,44919.32742389555,524.3672605111619,1.512266673965198,4.047962671443766,Jura,Reithouse,46.559,5.558,52.0,546.0,False,Online,Credit Card,9.280059023621657
Client_7712,38.0,9869.61750400765,645.0706765026091,0.7672569515576473,1.2066081953462153,Creuse,Felletin,45.885,2.174,1536.0,576.0,False,Mobile App,Bank Transfer,9.317637635443473
Client_4218,64.0,45337.227955416296,965.3983105780549,1.262556879769436,3.879460929241386,Aveyron,Saint-Jean-Delnous,44.044,2.492,387.0,508.0,True,Online,Bank Transfer,16.592844181874526
Client_33895,64.0,65439.09416796752,448.426518995218,0.8756741579965854,1.8612010849796279,Yonne,Champignelles,47.78,3.071,899.0,191.0,True,Mobile App,PayPal,11.362816280044566
Client_3211,30.0,30912.52153550378,427.5347771129881,1.100546507544286,3.489199578377632,Aube,Champfleury,48.618,4.005,105.0,118.0,True,In-store,Bank Transfer,19.654490086376807
Client_1314,44.0,9773.034064888769,2034.6083547586823,1.6027131756527013,6.438288353635603,Allier,La Guillermie,45.983,3.639,120.0,765.0,True,Online,Bank Transfer,11.762278246154745
Client_10389,77.0,119556.21873485763,111.66577609654723,1.3248167835673015,1.3429591020386145,Finistère,Lennon,48.193,-3.897,789.0,89.0,False,Mobile App,PayPal,11.870858639461769
Client_11039,56.0,195.67973421780377,60.92351245659614,1.8635389621190441,3.2483860664382984,Gard,Goudargues,44.216,4.466,1116.0,196.0,False,Online,Credit Card,16.291104131840832
Client_27117,75.0,41198.133558433365,1149.909314800399,1.7038431591213687,0.230912883888152,Rhône,Neuville-sur-Saône,45.878,4.84,7721.0,217.0,True,Online,PayPal,20.681142791353977
Client_34652,74.0,37644.9496171159,88.07191060251739,1.711224939576783,0.9967492317239035,Val-de-Marne,Le Plessis-Trévise,48.809,2.573,20218.0,105.0,True,Mobile App,Bank Transfer,6.374242193986385
Client_20184,24.0,40299.06074984166,272.7518780382075,0.900161692813748,5.939386427207941,Meuse,Frémeréville-sous-les-Côtes,48.8,5.655,124.0,274.0,True,Mobile App,PayPal,11.598611958452963
Client_818,71.0,38444.21764155849,580.0134969523357,2.2309160641007346,1.9526424803491937,Aisne,Maast-et-Violaine,49.285,3.45,140.0,131.0,True,Online,Bank Transfer,16.513010441109003
Client_24827,18.0,36892.58477767134,1445.3210765886931,1.5467230614339829,6.819713973611379,Puy-de-Dôme,Tourzel-Ronzières,45.527,3.129,199.0,736.0,False,Mobile App,Bank Transfer,14.538944296127864
Client_6749,48.0,20690.777199033604,1675.8140144160795,1.4621098285221494,0.19348813869937365,Côte-d'Or,Chazilly,47.182,4.582,145.0,421.0,False,Online,Bank Transfer,15.480714143648074
Client_23667,18.0,1320.169365624537,880.0784581550233,0.6847215341207453,5.7903514484367875,Pas-de-Calais,Boulogne-sur-Mer,50.725,1.613,40910.0,34.0,False,In-store,Bank Transfer,16.718547110151064
Client_19270,31.0,56465.276653280205,65.22347537440281,1.5389010431785684,2.294197028965196,Mayenne,Forcé,48.034,-0.702,1092.0,72.0,False,In-store,Bank Transfer,6.608756343933269
Client_16541,61.0,52543.048363226146,880.6008670251688,1.315592430281979,0.4372072385443522,Loiret,Égry,48.104,2.438,355.0,109.0,False,Mobile App,Bank Transfer,22.769974899453423
Client_21140,33.0,39570.3197377238,479.40783981409453,0.9418090438029504,1.6330320757985246,Moselle,Lesse,48.963,6.506,204.0,278.0,True,In-store,PayPal,16.934139390881953
Client_2048,18.0,9190.407698918523,440.65131555909585,1.6708790514228933,4.642709187659116,Ardèche,Aubenas,44.621,4.39,12360.0,238.0,False,In-store,Credit Card,5.1266746838270105
Client_13153,53.0,79575.90166958033,277.18267599363645,2.000787411797109,0.7237491852708376,Hérault,Thézan-lès-Béziers,43.422,3.169,3062.0,46.0,True,In-store,PayPal,18.955475706376433
Client_11062,71.0,13576.451640997522,320.8571820739335,2.5707596899130722,1.2768525358199998,Gard,Mandagout,44.02,3.625,379.0,593.0,False,In-store,PayPal,8.613193186413396
Client_29645,42.0,26986.246063718434,87.748784529702,2.1485943320317684,3.9951872680844036,Seine-Maritime,Lillebonne,49.521,0.532,8729.0,30.0,False,Online,Credit Card,13.448475335381028
Client_5449,45.0,45483.59969818861,441.6972761724125,1.8517523578353785,4.535459288558318,Charente,Roullet-Saint-Estèphe,45.584,0.047,4312.0,65.0,True,Online,Credit Card,25.924678567771767
Client_33433,64.0,39969.543708078956,31.915508828030056,1.2112076825347509,1.1157612717213796,Vosges,Coussey,48.409,5.683,710.0,319.0,False,Online,PayPal,19.28409988119615
Client_29230,31.0,,3032.5241142410805,2.5757725882112394,2.6853834115704958,Haute-Savoie,Sixt-Fer-à-Cheval,46.055,6.776,738.0,1804.0,True,Online,Credit Card,14.413221954634965
Client_2420,76.0,-2215.840676138212,153.17193014684824,0.6591079968608266,6.027959670773662,Ardennes,La Besace,49.557,4.959,134.0,220.0,False,Online,PayPal,8.87076673343595
Client_34971,19.0,21346.035543756054,177.44966122842118,5.252383068684046,5.544219820323102,Mayotte,Dzaoudzi,-12.788,45.272,17831.0,32.0,True,In-store,PayPal,17.55933988862008
Client_31430,40.0,43774.36343733267,843.3319165571077,0.982890967564635,2.090366736875959,Somme,Hervilly,49.936,3.115,190.0,94.0,True,Mobile App,PayPal,22.65821567494872
Client_10050,59.0,40768.28725174295,501.22572187780224,1.7792854113188832,2.2846964634308304,Eure-et-Loir,Fresnay-l'Évêque,48.265,1.822,743.0,139.0,True,,PayPal,21.33767703811589
Client_25916,35.0,20529.125390948655,1322.0675851448254,3.640853555180536,0.7297417857768314,Pyrénées-Orientales,Canohès,42.655,2.832,6534.0,73.0,False,In-store,Credit Card,15.901425407045261
Client_7129,21.0,17110.686140077476,334.823813991891,1.9496906417826043,8.165988413469133,Côte-d'Or,Saint-Léger-Triey,47.315,5.365,242.0,193.0,True,Mobile App,PayPal,24.41564394694953
Client_19885,71.0,60725.58482872757,386.81542645128627,0.6715736121766581,2.156371070452291,Meurthe-et-Moselle,Saint-Ail,49.18,5.997,410.0,289.0,False,Online,PayPal,19.391170755860205
Client_26317,21.0,29018.053176661073,276.4440297491938,1.2926102483070345,2.572620106234816,Bas-Rhin,Kaltenhouse,48.792,7.834,2478.0,141.0,False,In-store,PayPal,21.357714956348172
Client_13528,21.0,57170.65624575486,1609.1073528805205,1.544561277381809,3.334130565895304,Indre,Azay-le-Ferron,46.852,1.07,852.0,112.0,True,Mobile App,PayPal,17.280846217478754
Client_14580,28.0,19340.933425502604,748.1856477204653,2.706024825602348,4.709890274026403,Jura,Baverans,47.102,5.539,497.0,217.0,False,Online,PayPal,19.184781469521592
Client_18096,64.0,72818.05929477718,652.4249036552167,0.8995501821549837,1.2091282678084339,Manche,Savigny,49.05,-1.339,439.0,100.0,False,In-store,Bank Transfer,24.51190940019933
Client_13294,47.0,29957.74115962598,424.8521142145862,1.8182491241538103,2.768230145128305,Ille-et-Vilaine,Gévezé,48.221,-1.789,5890.0,74.0,True,Online,Bank Transfer,12.596970756753754
Client_10165,67.0,67556.91001393869,286.7247531436667,3.4493503170261417,1.4384915946940202,Eure-et-Loir,Pierres,48.59,1.567,2780.0,134.0,False,Online,Credit Card,15.5872889688384
Client_25988,39.0,22410.741676406153,374.0710312277993,2.104026275223903,3.3006765218703826,Pyrénées-Orientales,Montauriol,42.576,2.724,251.0,250.0,False,In-store,Bank Transfer,8.138952647085397
Client_17580,50.0,2376.683685014915,26.959181585032326,2.1712980983904866,0.095973323128832,Maine-et-Loire,Coron,47.128,-0.646,1547.0,136.0,False,Online,Bank Transfer,13.957302009903204
Client_13959,36.0,25203.09272964846,359.6497351308091,1.6720264589009688,0.22986386764571387,Indre-et-Loire,Saché,47.247,0.543,1403.0,85.0,False,Online,Bank Transfer,10.730116920109378
Client_16299,38.0,36303.74851465431,213.13949385172742,0.9008998516259882,0.3574420735137238,Loire-Atlantique,Missillac,47.481,-2.159,5529.0,28.0,False,Mobile App,PayPal,12.214526377479153
Client_23609,37.0,14939.226706092331,646.191055839956,0.5780922801408794,6.993396106886979,Pas-de-Calais,Beaurains,50.263,2.789,5515.0,87.0,True,Online,Bank Transfer,16.879144033755875
Client_21317,42.0,25464.20181235539,1303.534245642759,2.436111322242607,1.4018332893629424,Moselle,Richemont,49.28,6.167,2116.0,167.0,False,Online,Credit Card,13.104969356185489
Client_22906,63.0,22346.893622879932,107.39107379032129,1.7474676578324952,5.008721412748764,Oise,Omécourt,49.61,1.847,202.0,183.0,True,Online,Bank Transfer,24.86908257808328
Client_6354,38.0,27284.202728461616,500.71188748802837,1.4058261022749488,2.0257231437525647,Corrèze,Chartrier-Ferrière,45.071,1.452,361.0,282.0,False,Online,PayPal,17.41616136381748
Client_17271,56.0,57758.58356665148,842.0943760581083,2.1803876781165337,1.437968882297103,Lot-et-Garonne,Rayet,44.677,0.777,177.0,108.0,True,Online,Credit Card,5.94015920905562
Client_12779,48.0,48402.41255935002,283.35767515974834,0.460273560182075,2.180011078181573,Gironde,Saint-Vincent-de-Pertignas,44.798,-0.112,339.0,48.0,True,Mobile App,PayPal,16.11946086080288
Client_14554,73.0,54518.9363729955,454.57699079657914,0.9596427752222587,2.0801043270157265,Jura,Arbois,46.903,5.772,3193.0,428.0,True,Mobile App,PayPal,20.40270262047942
Client_34559,75.0,46042.508221456854,378.2087831636488,2.0762509001409533,1.4714570917659897,Hauts-de-Seine,Fontenay-aux-Roses,48.791,2.286,24772.0,109.0,True,Online,Bank Transfer,10.515338931506232
Client_29362,20.0,31710.932539394133,390.52166583266694,1.293427385085175,5.299491612836192,Seine-Maritime,Bernières,49.619,0.477,637.0,131.0,True,In-store,Bank Transfer,20.57225625346763
Client_2313,23.0,29626.92961129348,486.2403545828145,2.500908291636886,4.058970717995321,Ardèche,Saint-Sernin,44.572,4.393,1812.0,205.0,True,Online,Bank Transfer,17.27469176320586
Client_8891,67.0,23653.88912381185,662.5247829832123,1.3244382308241625,0.2484862680393154,Doubs,Surmont,47.278,6.612,119.0,705.0,True,Online,Bank Transfer,17.03020793488023
Client_10786,39.0,31364.751358002657,1957.2651289786045,1.8712319584685535,5.113859980698496,Haute-Corse,Novale,42.31,9.414,60.0,770.0,True,Online,Bank Transfer,13.356503123022296
Client_6183,40.0,35852.122974889244,442.73588380987366,1.396908756334526,2.4352504685948624,Cher,Neuvy-Deux-Clochers,47.278,2.699,267.0,293.0,False,Mobile App,Credit Card,15.691790054938934
Client_18403,35.0,20147.39850319454,222.5115648163486,1.723346276370413,0.43161825508075435,Marne,Glannes,48.707,4.542,186.0,147.0,True,In-store,PayPal,14.624386770647735
Client_34043,38.0,59450.89081719564,1325.4826339047638,1.5635013110495228,1.0847229044822315,Yonne,Massangis,47.624,3.974,343.0,266.0,True,In-store,Credit Card,6.7519282168512955
Client_33775,36.0,65763.80889794751,398.3604914432323,1.7876280081637073,8.51088936393442,Vosges,Ubexy,48.335,6.274,167.0,323.0,True,In-store,PayPal,21.21524905837143
Client_19312,63.0,22517.57874931349,147.8021318402609,1.8783288472211976,1.287867103991629,Mayenne,Madré,48.477,-0.38,288.0,153.0,True,Mobile App,Credit Card,13.24436474951831
Client_24342,53.0,29541.8049735008,694.3168640886619,3.093288598041197,2.6726604763601634,Pas-de-Calais,Verton,50.402,1.65,2537.0,23.0,True,In-store,Credit Card,10.111645662319427
Client_18933,61.0,74846.80376229077,1039.446595856693,1.1773647829864404,1.4987401560988012,Haute-Marne,Giey-sur-Aujon,47.906,5.069,143.0,380.0,False,Online,Bank Transfer,13.422109668362946
Client_8335,33.0,42477.98570075715,439.93319107061774,3.092864937242348,5.8502847019462,Dordogne,Saussignac,44.8,0.327,418.0,92.0,False,In-store,Credit Card,19.648066415070023
Client_1741,77.0,15650.634861754128,2038.3320304888982,1.7759296078548237,0.15094815310030407,Hautes-Alpes,Crots,44.534,6.471,1136.0,1539.0,True,Online,PayPal,13.272246915552644
Client_33675,61.0,30065.973604441442,631.6826555990049,1.8003924354250544,2.833675967693666,Vosges,Raon-l'Étape,48.407,6.844,6061.0,367.0,False,Online,Bank Transfer,22.576180073247784
Client_27697,46.0,33142.56455094343,1110.1886060922443,0.8829608046144795,1.0634389033873313,Haute-Saône,Saint-Sauveur,47.804,6.384,1938.0,284.0,True,Online,Bank Transfer,11.325412311145287
Client_26881,69.0,25987.514769372032,853.1689730552783,1.5380169846161469,0.9585397658595749,Haut-Rhin,Rimbachzell,47.9,7.176,192.0,541.0,False,Online,Bank Transfer,17.847509477384197
Client_18313,59.0,29127.342754337325,363.3196640072912,2.353184657287418,1.4336459387877554,Marne,Coulommes-la-Montagne,49.226,3.911,206.0,165.0,False,Online,Credit Card,15.403125645557472
Client_9495,66.0,94900.06344281726,228.8920440814838,1.1439737519132447,2.83425093807686,Eure,Daubeuf-la-Campagne,49.191,1.028,242.0,152.0,True,Online,Bank Transfer,8.923468916353398
Client_20755,22.0,52184.96051492619,299.9586977006069,1.9881507468945414,5.067743433060487,Morbihan,Treffléan,47.681,-2.614,2491.0,98.0,False,Mobile App,PayPal,19.639554298491113
Client_34104,62.0,109582.28442054019,79.97047894805132,1.6359363353180845,1.5593401547521704,Yonne,Préhy,47.759,3.758,162.0,225.0,True,Online,PayPal,15.520429888980887
Client_12240,63.0,25536.596946228423,908.5573621896583,0.7408793775091759,2.314784127911394,Gers,Saint-Orens,43.714,0.908,82.0,174.0,True,Online,Credit Card,9.865078740655637
Client_14057,59.0,34060.05994046226,783.1344143537165,1.24488654197168,0.19208943603237927,Isère,Beaulieu,45.193,5.392,634.0,259.0,False,Mobile App,PayPal,19.527380988123717
Client_33536,46.0,40993.29778110559,387.8552124298888,0.43568598041651435,3.4730783598232264,Vosges,Hagécourt,48.235,6.154,129.0,302.0,False,In-store,Bank Transfer,13.748615642794668
Client_22156,29.0,35947.045373862034,67.11999325188572,1.0181019214028078,4.868749496824408,Nord,Maing,50.308,3.483,4004.0,54.0,True,In-store,Bank Transfer,13.869820912218659
Client_28112,35.0,26048.531009001763,400.08888571502405,2.6686093092824064,0.47880857550376965,Saône-et-Loire,Mussy-sous-Dun,46.234,4.33,333.0,453.0,True,In-store,Credit Card,11.680526091113414
Client_3289,74.0,62972.770516956014,977.0097687303337,0.8774509604465908,2.8496165907987283,Aube,Fontette,48.083,4.609,178.0,308.0,True,Online,Bank Transfer,11.347681990672971
Client_26470,76.0,73233.45621686178,362.1050004249345,0.7110135672178078,3.329413012723344,Bas-Rhin,Richtolsheim,48.225,7.596,368.0,170.0,True,Online,Bank Transfer,14.129432023053013
Client_5118,56.0,42047.67445286249,174.1444931283139,2.8505230152848817,3.7425927009206377,Cantal,Saint-Étienne-de-Maurs,44.717,2.209,780.0,374.0,True,Mobile App,Credit Card,14.613287926024961
Client_23661,60.0,31425.584774569597,1170.6043901938533,1.3276429246119812,1.8175340854521402,Pas-de-Calais,Bomy,50.574,2.236,640.0,134.0,True,Mobile App,Bank Transfer,15.731426045076052
Client_5558,25.0,29076.388766845896,402.34881498044587,0.0005491054663794628,9.096331215204515,Charente,Yviers,45.274,-0.007,535.0,93.0,True,Mobile App,PayPal,18.034900504907256
Client_34536,79.0,54285.70688032011,1413.489778489086,1.6821730190267434,2.322771703138354,Essonne,La Ville-du-Bois,48.661,2.269,8080.0,116.0,False,Mobile App,PayPal,12.140169849709608
Client_31431,45.0,28999.848407506524,98.11514569894501,1.4992395513319463,1.881615775794347,Somme,Hesbécourt,49.944,3.13,53.0,116.0,False,Online,PayPal,22.823270853949268
Client_22345,27.0,52430.0892086335,319.6688206552009,1.0821673664920963,5.35419217862143,Nord,Séranvillers-Forenville,50.124,3.282,415.0,99.0,True,Online,Credit Card,9.4754745835377
Client_17798,65.0,14259.357036197378,385.4076790988213,1.169627388810636,0.35015301275594335,Manche,Courtils,48.627,-1.41,228.0,11.0,True,Online,PayPal,22.845312919649757
Client_6782,24.0,24149.852138037357,136.25466412606696,1.1167372833593683,5.537104429487085,Côte-d'Or,Corsaint,47.539,4.199,141.0,282.0,False,Mobile App,Bank Transfer,16.09031732003536
Client_30245,36.0,56932.526835443634,93.96707662250336,1.4767342133589767,1.3976630144400142,Seine-et-Marne,Longperrier,49.053,2.665,2669.0,118.0,False,Mobile App,PayPal,13.650012424365155
Client_1678,63.0,66937.33176542076,1602.4089195792567,1.662279336508893,0.8165450292062886,Alpes-de-Haute-Provence,Simiane-la-Rotonde,43.981,5.563,607.0,747.0,False,Online,PayPal,12.9715249707039
Client_33527,60.0,32956.252874918304,1390.1528516600456,2.1036721216948058,0.8163969045751802,Vosges,Grandvillers,48.239,6.667,731.0,397.0,True,Online,Bank Transfer,11.923789720981107
Client_12573,61.0,13580.794979631295,74.6613092422543,1.617021979734992,0.9937814814222046,Gironde,Marsas,45.068,-0.384,1226.0,56.0,False,Online,Bank Transfer,10.870086348935935
Client_3838,41.0,41962.426910715425,512.5560643897106,1.8338780296297221,2.352949645450693,Aude,Palaja,43.174,2.387,2594.0,228.0,True,Online,PayPal,21.53240147550703
Client_9470,49.0,57324.21895324839,732.9028476161452,1.4671530354249365,0.9839936085966778,Eure,Cormeilles,49.247,0.378,1166.0,94.0,False,In-store,PayPal,17.35889590746354
Client_30815,22.0,27992.353733373126,39.04449657630311,2.0566130001787206,0.1710735169573372,Deux-Sèvres,Plaine-d'Argenson,46.155,-0.484,984.0,47.0,False,In-store,Credit Card,9.472500921973207
Client_33312,22.0,41096.61400253939,640.1290527463663,1.4540358295760771,4.762907307467659,Haute-Vienne,Vaulry,46.022,1.085,402.0,306.0,False,Online,Bank Transfer,21.035708670675326
Client_6464,73.0,54199.05590479303,1387.9713352548504,1.0109696038510407,2.46137345050707,Corrèze,Péret-Bel-Air,45.477,2.039,86.0,794.0,False,Mobile App,PayPal,14.331442281390098
Client_3550,36.0,53897.57604460922,1529.6682259190677,0.4165602998123849,3.811131050676477,Aube,Villery,48.172,4.018,270.0,199.0,False,In-store,PayPal,18.423069651440144
Client_30546,57.0,25662.24139044054,354.23011014471166,1.2896448824526345,1.290094255190699,Yvelines,Buc,48.774,2.126,5920.0,149.0,True,In-store,PayPal,14.253027557417735
Client_28442,53.0,46589.85534476508,129.74555971324781,2.1586143694324047,2.005340566802076,Sarthe,Conflans-sur-Anille,47.945,0.746,466.0,155.0,False,In-store,PayPal,14.780572979527987
Client_16711,61.0,36867.33044197279,136.76915930239463,2.2652225571856572,0.22652152895165545,Loiret,Sully-la-Chapelle,47.975,2.182,448.0,121.0,True,In-store,Credit Card,14.999698239853291
Client_11626,35.0,18670.654122052925,370.79830055974026,0.6774517461535593,3.3425453629218276,Haute-Garonne,Montégut-Bourjac,43.281,0.99,133.0,294.0,False,Online,Bank Transfer,17.385456017942836
Client_5157,22.0,23957.87482457992,597.7580194740217,2.824702666014193,5.287632739245225,Cantal,Siran,44.954,2.127,456.0,603.0,False,Online,Credit Card,12.583971926088553
Client_11581,45.0,35265.06089724312,36.943051588067306,0.5972859317737934,3.0506338680892013,Haute-Garonne,Mascarville,43.554,1.759,183.0,218.0,True,Online,Bank Transfer,9.84996643368914
Client_9284,25.0,59502.561883509225,1891.7731169664112,0.4291850791743179,3.414869448406497,Drôme,Séderon,44.202,5.538,243.0,982.0,False,In-store,PayPal,16.144046751212414
Client_3094,66.0,59024.36658109079,746.2760465111711,1.3204189138035007,1.4407491245121626,Ariège,Serres-sur-Arget,42.969,1.519,725.0,684.0,False,In-store,PayPal,5000.0
Client_7179,47.0,49561.16248900906,1012.1749758600797,3.0537623085468697,1.8459473074802832,Côte-d'Or,Ladoix-Serrigny,47.066,4.887,1785.0,222.0,True,Mobile App,Credit Card,18.571760477810958
Client_9485,42.0,24937.845531995084,599.1463701841383,1.8169696914820437,1.9130802413393742,Eure,La Croisille,48.982,0.976,417.0,134.0,True,In-store,Credit Card,19.122444484720045
Client_23608,68.0,79105.39088809013,95.10980385271648,1.0391731567879223,1.9388715495362543,Pas-de-Calais,Beaumetz-lès-Loges,50.244,2.656,998.0,119.0,True,Mobile App,Bank Transfer,13.345863241584908
Client_6735,31.0,20945.807382098395,504.0973893426494,1.4608168066062044,4.134101809406841,Côte-d'Or,Chassagne-Montrachet,46.938,4.729,275.0,271.0,True,Online,Credit Card,19.13367631845366
Client_4390,62.0,48986.014804478866,1019.6180081734989,0.9160078830318302,0.051823304928153346,Bouches-du-Rhône,Saint-Victoret,43.42,5.233,6648.0,49.0,True,Online,PayPal,12.688664103738226
Client_23077,20.0,56581.760853701126,334.516236727232,1.3064565159881076,6.792385366628055,Oise,Valdampierre,49.304,2.052,902.0,186.0,True,In-store,PayPal,19.65812988194833
Client_33974,59.0,30015.33523188458,264.14409374067407,2.662061329259717,3.888035559028975,Yonne,Fleys,47.814,3.862,175.0,232.0,True,In-store,Credit Card,17.523460755922486
Client_20365,79.0,64553.98091583315,255.66715440381256,0.8923507346492165,1.3734868900113435,Meuse,Quincy-Landzécourt,49.494,5.297,131.0,229.0,False,Online,PayPal,13.983027889168005
Client_34613,58.0,10780.698912308493,314.9258443254276,3.224478117384669,1.504745668550556,Seine-Saint-Denis,Saint-Denis,48.936,2.358,113942.0,34.0,False,Mobile App,Credit Card,11.810806002945078
Client_22797,62.0,52186.109688611454,222.1615059564203,1.7340959898697583,1.5088057698437716,Oise,Liancourt,49.329,2.468,6983.0,76.0,False,Online,Bank Transfer,13.709077239511293
Client_16252,47.0,29985.98382954741,176.94388858611038,2.6716567419455,2.676876088563828,Loire-Atlantique,Couffé,47.392,-1.292,2535.0,36.0,True,Mobile App,Credit Card,13.245033248754424
Client_1833,70.0,31360.292282708408,2399.955536539359,1.3132465976522885,1.1165618261288714,Hautes-Alpes,Saint-Laurent-du-Cros,44.644,6.113,562.0,1178.0,True,Online,Bank Transfer,10.273538120517305
Client_34859,44.0,31221.331123024782,182.4984536065919,4.628746834921591,0.32295785140546585,Guadeloupe,Capesterre-de-Marie-Galante,15.892,-61.221,3198.0,119.0,False,In-store,Credit Card,11.945890019667928
Client_21722,77.0,99403.74129604608,626.9803858107578,2.17419464201088,2.2329645082713165,Nièvre,Saint-Didier,47.349,3.621,29.0,181.0,True,Mobile App,Credit Card,13.225266942603334
Client_24456,21.0,39240.46949806278,950.6624971617216,3.305621227281099,3.317486691263895,Puy-de-Dôme,Brousse,45.602,3.458,344.0,659.0,True,Mobile App,Credit Card,19.620447105964274
Client_28260,48.0,69142.0143538442,29.821167539712235,1.605925956478392,2.5947278680165837,Saône-et-Loire,Saint-Symphorien-d'Ancelles,46.198,4.773,1123.0,176.0,True,In-store,Credit Card,6.434943890202998
Client_6862,62.0,37704.16882294098,205.0018635003123,2.1782396565442097,4.49169941545363,Côte-d'Or,Fontenelle,47.502,5.374,170.0,242.0,True,In-store,Bank Transfer,10.766165111039522
Client_12285,34.0,19921.889868646333,55.804158576689986,1.4061413886071716,3.6701671718929343,Gers,Thoux,43.682,0.994,258.0,182.0,True,Online,PayPal,13.58525199298427
Client_13984,48.0,49125.94790537005,903.6437375454774,1.4997123800562606,0.40595859174942195,Indre-et-Loire,Saint-Pierre-des-Corps,47.39,0.719,15909.0,48.0,False,Mobile App,Bank Transfer,7.572923448264045
Client_9232,50.0,55552.62779821482,175.95267464986586,0.5397577941053444,0.040630861923643735,Drôme,Roynac,44.643,4.94,481.0,254.0,False,Mobile App,PayPal,10.873078946074468
Client_32502,75.0,44254.52942054693,302.51839323396155,2.47197611539921,2.527187233245278,Vaucluse,Gignac,43.919,,73.0,605.0,False,Online,Credit Card,26.032799734721287
Client_7505,72.0,33238.60943034774,537.7814651179962,1.4381258500883003,1.3097255400019066,Côtes-d'Armor,Pommeret,48.462,-2.626,2121.0,60.0,False,Online,PayPal,20.96769162528874
Client_32133,41.0,85258.51730777688,201.48979514678237,1.896882585371274,0.8267785786616169,Tarn-et-Garonne,Campsas,43.897,1.327,1446.0,123.0,False,Online,Bank Transfer,5.840070023747897
Client_958,34.0,21261.430029758834,124.77180853340849,0.7021833839075099,0.04357734675959701,Aisne,Pargny-Filain,49.465,3.546,255.0,120.0,False,Mobile App,PayPal,14.706458427563312
Client_28432,22.0,27612.46061755901,331.6111982294558,1.5779267805212298,0.8953080509057467,Sarthe,Chemiré-le-Gaudin,47.928,-0.014,995.0,64.0,True,In-store,PayPal,17.734186134778852
Client_4264,71.0,37406.29956268758,865.0983326712098,1.8336383207052736,2.3797577640212264,Aveyron,Tayrac,44.202,2.233,187.0,444.0,True,Online,Bank Transfer,10.20588586010006
Client_34734,21.0,34929.48313592528,160.70612743871897,1.0103280162306787,3.4657626732557443,Val-d'Oise,Ézanville,49.032,2.362,9573.0,93.0,False,In-store,PayPal,19.368058500672678
Client_27060,45.0,43176.69490366241,951.983714924171,1.72311294781484,5.239848011518235,Rhône,Émeringes,46.223,4.675,281.0,371.0,True,Mobile App,Bank Transfer,19.61372442505111
Client_30557,40.0,15566.429868826932,184.58717794869872,1.2104016756923028,5.376733866151171,Yvelines,Châteaufort,48.737,2.092,1515.0,144.0,True,Online,Bank Transfer,28.917578017503146
Client_1910,27.0,41301.268118787775,173.22828748854215,1.2777676777355353,4.843542027724666,Alpes-Maritimes,Coaraze,43.864,7.294,817.0,689.0,True,Online,Bank Transfer,16.18012239870783
Client_10619,43.0,55730.84805711916,426.50187387215726,0.9273721633816865,2.789502702917691,Corse-du-Sud,Olmeto,41.717,8.918,1241.0,293.0,True,Mobile App,PayPal,12.945469069116196
Client_19861,45.0,51997.0683777093,1206.98132943041,2.863918239487866,3.7253748514244682,Meurthe-et-Moselle,Raon-lès-Leau,48.512,7.1,38.0,463.0,True,Mobile App,Credit Card,15.717981084976362
Client_25562,34.0,63980.68106782219,2722.714704480011,3.832216792238752,3.7248309025336446,Hautes-Pyrénées,Ens,42.807,0.34,23.0,1548.0,True,Mobile App,Credit Card,17.925320343082007
Client_10356,57.0,31391.326044952744,233.7805633868202,2.3241699280482595,1.8569982475262448,Finistère,Île-Tudy,47.842,-4.168,741.0,1.0,True,Mobile App,PayPal,15.281069986680242
Client_7910,28.0,41200.52742055383,331.3213477191802,0.33551656490708115,1.1241933088924263,Dordogne,Bardou,44.736,0.686,45.0,147.0,False,Mobile App,Bank Transfer,15.331893052807697
Client_23121,18.0,8761.113894352631,299.78320751095856,1.84013333576066,3.9374507386745576,Oise,Wacquemoulin,49.502,2.617,283.0,86.0,False,Mobile App,Bank Transfer,11.724817747911066
Client_13531,59.0,11471.349905777422,259.11136981873926,1.296616226024732,0.960809641393041,Indre,Baudres,47.058,1.579,409.0,164.0,True,In-store,Credit Card,10.544291766376244
Client_32776,33.0,16216.606724958781,1667.6704728939308,2.0250294390765795,3.6611309489261625,Vendée,Sainte-Cécile,46.743,-1.114,1584.0,70.0,True,Online,Credit Card,24.44280127400738
Client_13623,27.0,21666.353170014056,374.2716983057294,2.7285688813880773,0.25130453733899116,Indre,Lye,47.229,1.473,741.0,115.0,True,In-store,Credit Card,6.842080847149557
Client_27677,68.0,51923.17885129957,1081.2990149415812,2.4271005386983746,1.9850683413884527,Haute-Saône,Ronchamp,47.7,6.633,2746.0,441.0,True,Online,Credit Card,17.534552633485923
Client_21944,18.0,28397.476433600877,21.41285089209201,1.1681057005440283,4.171626274323155,Nord,Cobrieux,50.543,3.226,544.0,44.0,False,Online,PayPal,9.611158836896841
Client_27476,71.0,79698.72613587402,628.3652431821764,1.6800247972024305,2.2305952349851914,Haute-Saône,Ferrières-lès-Ray,47.58,5.804,37.0,204.0,False,Mobile App,Credit Card,12.702362802825867
Client_26930,55.0,17639.778385008543,819.9064178137057,2.457143834096373,4.250760902046199,Haut-Rhin,Storckensohn,47.879,6.958,192.0,761.0,True,In-store,Credit Card,11.994342091644283
Client_29768,31.0,20086.15313109556,314.26509156943507,0.6689310676825797,0.7225743586843887,Seine-Maritime,Prétot-Vicquemare,49.733,0.856,232.0,138.0,False,Online,PayPal,6.887204798558846
Client_26559,25.0,46072.28422297358,132.17351080065419,0.7449255766110348,2.771799969541897,Bas-Rhin,Trimbach,48.94,8.023,582.0,156.0,False,In-store,Bank Transfer,7.580329030489775
Client_17666,23.0,6905.514252641646,556.9818386094319,2.1642779849761133,0.7955270998535209,Maine-et-Loire,Saint-Melaine-sur-Aubance,47.371,-0.497,2201.0,41.0,True,Mobile App,Credit Card,15.976631270469138
Client_18152,42.0,1800.1973866106925,301.1263414926842,2.5787161017106177,1.1956806265056548,Marne,Allemanche-Launay-et-Soyer,48.604,3.788,116.0,79.0,True,Online,Credit Card,5.777271918085027
Client_29637,75.0,52377.407874047705,331.4673779289882,1.6310359602667397,3.0890023051844264,Seine-Maritime,Ingouville,49.845,0.684,276.0,70.0,True,Mobile App,Credit Card,12.277800340658853
Client_1621,42.0,77385.51615279327,675.4104812818637,2.6180834938389093,0.9749787569953323,Alpes-de-Haute-Provence,Oraison,43.918,5.918,5981.0,417.0,True,In-store,Credit Card,13.823719378069418
Client_18814,65.0,54225.788564376955,326.7244708932954,2.450616232465686,1.9002779700684018,Haute-Marne,Braux-le-Châtel,48.099,4.944,132.0,279.0,True,In-store,Credit Card,13.38690772081435
Client_8981,35.0,13361.073949646865,737.1556487682024,1.6132937880320901,6.44999666354726,Drôme,La Répara-Auriples,44.66,4.986,250.0,350.0,False,Online,Bank Transfer,21.74919489557122
Client_30974,74.0,32248.52168448163,124.32430749259983,2.9725654521296487,0.5219713989429702,Deux-Sèvres,Saint-Romans-des-Champs,46.204,-0.345,166.0,65.0,True,Online,Credit Card,8.878683461877301
Client_22050,19.0,15921.864065845566,167.98887977399716,0.5853493323595359,7.14965446804659,Nord,Ghyvelde,51.052,2.527,4119.0,2.0,True,In-store,Bank Transfer,18.158615879430748
Client_7871,65.0,52434.27974176117,846.0534666818066,1.0156829461081809,0.7678391229267039,Creuse,Saint-Vaury,46.204,1.756,1732.0,472.0,True,Mobile App,PayPal,13.313139062497555
Client_32213,44.0,4922.298968152697,667.8093865043802,1.8178132933477436,0.1893916541119285,Tarn-et-Garonne,Maumusson,43.917,0.904,49.0,209.0,True,Mobile App,Credit Card,14.589329764149884
Client_1103,26.0,34591.182933480915,1095.822785095097,1.7622092786113706,2.2199454636947236,Aisne,Torcy-en-Valois,49.086,3.279,74.0,121.0,False,In-store,Credit Card,13.805474358530475
Client_914,25.0,10981.304656785853,66.956090776,1.1904074394841029,0.9876844489950263,Aisne,La Neuville-Bosmont,49.713,3.839,187.0,126.0,False,Online,PayPal,12.99521660224612
Client_16940,75.0,90555.6853333793,554.8424850662062,2.6567936304592465,1.3149366046055913,Lot,Nadillac,44.564,1.518,71.0,312.0,True,Online,PayPal,21.1837560604655
Client_24223,42.0,47184.716786145145,355.19196432868546,0.6063514980723903,2.6737379527516776,Pas-de-Calais,Rumilly,50.576,2.012,243.0,134.0,False,In-store,PayPal,18.723031120552026
Client_14764,47.0,58690.15598239224,941.4300439379846,1.784472850308378,3.9977089150734226,Jura,Grange-de-Vaivre,47.004,5.842,41.0,287.0,True,Mobile App,PayPal,5.436110297117837
Client_22273,27.0,67995.54391703845,555.0994102019866,2.144783476567668,6.766040919764723,Nord,Ramillies,50.206,3.261,596.0,58.0,False,Mobile App,Credit Card,23.153550272249966
Client_1052,26.0,37718.63843422006,423.7491739257944,1.9740398189268051,5.279688187771389,Aisne,Saint-Pierremont,49.722,3.882,40.0,125.0,True,Mobile App,Credit Card,18.627962820435414
Client_2033,39.0,48180.45769681004,1652.68500896345,1.5286027232366306,2.343839069674271,Ardèche,Aizac,44.715,4.328,170.0,732.0,False,Online,Bank Transfer,18.930312775330037
Client_25051,67.0,71672.6824227234,1046.8612577074928,4.340752570118145,2.5492854778249274,Pyrénées-Atlantiques,Corbère-Abères,43.473,-0.089,96.0,221.0,True,Online,Credit Card,17.82207490017419
Client_17169,76.0,49548.20089944134,381.19907179141796,2.2093743825984165,0.030201798224814835,Lot-et-Garonne,Grayssas,44.165,0.874,144.0,138.0,True,Online,Credit Card,19.164463754981043
Client_4779,56.0,57847.572384845385,487.72659125842335,1.9839236846839503,0.41147095897494657,Calvados,Planquery,49.159,-0.833,248.0,113.0,True,Online,Credit Card,12.9783150177546
Client_12036,78.0,53247.973166258416,963.1167114166469,3.0378347475854484,3.114868494367143,Gers,Larressingle,43.944,0.31,211.0,124.0,False,Mobile App,Credit Card,20.060960589345694
Client_13143,67.0,49090.91028628229,538.8549500582071,3.099899510598236,3.907341005328324,Hérault,Servian,43.427,3.3,5337.0,53.0,False,Mobile App,Credit Card,12.8260528687605
Client_6381,56.0,62383.20647603464,1706.9123154596537,3.2188700047984145,2.358623776331905,Corrèze,L'Église-aux-Bois,45.648,1.803,52.0,652.0,True,Online,Credit Card,9.953993653217495
Client_27452,55.0,49174.08224451707,700.3065813971775,1.0461020836857353,0.48772984344481907,Haute-Saône,Denèvre,47.568,5.644,149.0,230.0,True,In-store,Bank Transfer,15.848412551649208
Client_8353,70.0,54926.122644312345,386.3631423901232,0.2595934656042787,1.0690871170857505,Dordogne,Sourzac,45.051,0.391,1118.0,99.0,False,Mobile App,Bank Transfer,17.69749617449395
Client_32148,46.0,54657.88042986788,304.82581269164655,1.598672095469478,0.007149099385628688,Tarn-et-Garonne,Cazes-Mondenard,44.227,1.203,1214.0,163.0,False,In-store,Bank Transfer,17.728618024218974
Client_9906,38.0,18488.593722250713,136.03618424762846,0.9136559559424834,3.183884371367938,Eure,Vitot,49.162,0.9,560.0,144.0,False,Online,PayPal,16.291198532260907
Client_14578,61.0,41342.40949468725,1405.360972001637,0.9304141030057355,3.7567929516474035,Jura,Barretaine,46.821,5.71,186.0,555.0,True,Online,Bank Transfer,16.084883816414237
Client_30332,61.0,63284.813038486645,328.8397070774576,1.2526661220734525,0.8327913246226268,Seine-et-Marne,Ozoir-la-Ferrière,48.762,2.672,20692.0,108.0,True,Online,Bank Transfer,10.531096164622673
Client_17881,34.0,31692.290427769407,537.7924129065395,0.9719929048435482,1.2440586780532055,Manche,Lapenty,48.579,-1.008,376.0,103.0,False,Mobile App,PayPal,13.906862041728976
Client_9311,27.0,31158.020404405353,653.9190724001477,1.6211703781885136,3.760710726008005,Drôme,Verclause,44.38,5.428,64.0,818.0,True,In-store,Credit Card,10.751443016203943
Client_11648,21.0,41854.47604412971,105.33310087487149,3.6427457732254327,4.8422465106646735,Haute-Garonne,Mourvilles-Basses,43.486,1.702,79.0,219.0,True,Online,Credit Card,16.059532104559644
Client_30276,29.0,47194.373843917376,282.8499311389156,1.4384387440893374,3.5760567904693823,Seine-et-Marne,Méry-sur-Marne,48.966,3.202,696.0,109.0,False,Mobile App,Bank Transfer,16.179299208945586
Client_18537,35.0,19439.82573838595,53.172522228045125,1.2480745601368943,4.75781247384455,Marne,Passavant-en-Argonne,49.022,5.002,192.0,173.0,True,Mobile App,Bank Transfer,11.282627616173123
Client_899,43.0,36212.460822520654,653.5800047973298,0.8367205291234215,0.5729564781842407,Aisne,Moulins,49.42,3.685,77.0,97.0,True,Online,PayPal,17.534235277912032
Client_11689,72.0,86071.12067001729,398.69243951794584,1.587460366438085,1.3644683728163463,Haute-Garonne,Portet-sur-Garonne,43.52,1.4,9805.0,154.0,True,Online,PayPal,14.093935344118876
Client_27454,41.0,20726.678631038,782.6175891974153,0.21472826283481047,0.8399096235619883,Haute-Saône,Échenans-sous-Mont-Vaudois,47.604,6.772,566.0,390.0,False,Mobile App,Bank Transfer,13.99496479571859
Client_22497,56.0,30035.775943391352,1346.6103775812983,0.8587069972741301,0.8332905433680029,Oise,Beaulieu-les-Fontaines,49.659,2.914,578.0,89.0,False,Online,Bank Transfer,13.955624013701918
Client_17946,35.0,20562.97210857041,260.49683515258107,0.9543546446027112,5.553824117293727,Manche,Moulines,48.545,-1.033,281.0,127.0,True,Online,Bank Transfer,20.17030246374472
Client_1898,33.0,13025.179567142768,781.0638620025233,0.9938093443399899,2.615165795324409,Alpes-Maritimes,Cantaron,43.762,7.318,1285.0,380.0,True,Online,PayPal,13.234800402824543
Client_3408,36.0,75205.16551241135,180.52710368070063,0.6617758097456152,6.024909017785273,Aube,Ossey-les-Trois-Maisons,48.434,3.736,597.0,121.0,True,Online,Bank Transfer,12.352631889214658
Client_3155,54.0,43530.727279197316,372.98215342941666,2.1784037136339123,1.9543990892535863,Aube,Auxon,48.103,3.919,982.0,162.0,False,In-store,PayPal,9.333637924597024
Client_24296,26.0,67242.71502376275,286.7529328627013,1.5808420130412546,4.4393227260425965,Pas-de-Calais,Le Souich,50.222,2.367,188.0,148.0,False,In-store,PayPal,13.159358226379734
Client_32129,70.0,16501.46464135393,517.2815128126736,1.711700071719632,1.1319463155738365,Tarn-et-Garonne,Bourret,43.943,1.17,977.0,130.0,False,Mobile App,PayPal,9.184925770242721
Client_27185,60.0,20306.938086045753,918.3327974136151,1.819149393057876,2.122619418423003,Rhône,Saint-Martin-en-Haut,45.66,4.559,3891.0,708.0,False,Online,Credit Card,16.41659912301767
Client_2803,18.0,30824.33147716368,851.2795186989765,1.4132492164342247,7.855340059971356,Ardennes,Vrigne aux Bois,49.736,4.859,3540.0,180.0,True,In-store,Bank Transfer,11.098914485720169
Client_24377,48.0,36068.90617059034,68.31792968344999,0.8726051604118952,0.25124324513494134,Pas-de-Calais,Westrehem,50.546,2.346,251.0,110.0,True,Online,PayPal,7.204389021404497
Client_18499,57.0,76804.43585234898,34.24068642355377,0.47719819485097653,5.537150444121194,Marne,Monthelon,48.994,3.936,346.0,156.0,True,Mobile App,Bank Transfer,13.026406720587099
Client_9385,55.0,46555.71262311117,299.52397478685447,0.8218649393695174,1.6808761676565862,Eure,Bois-Anzeray,48.926,0.684,178.0,188.0,True,In-store,Bank Transfer,21.63470639837218
Client_19161,72.0,50462.66702853376,1055.7868205133618,1.1700887373170208,5.040129065022482,Haute-Marne,Vesvres-sous-Chalancey,47.694,5.17,46.0,449.0,True,Online,Bank Transfer,12.301612486402753
Client_27142,49.0,-3181.6222542122696,394.870534412237,1.663750184366089,0.9861202524137658,Rhône,Les Sauvages,45.925,4.376,617.0,687.0,True,In-store,PayPal,10.921388013014749
Client_24720,69.0,20555.99609116862,647.0900910796686,1.1377725912021828,1.550287476103724,Puy-de-Dôme,Saint-Bonnet-près-Riom,45.928,3.112,2072.0,366.0,True,Mobile App,PayPal,14.740497129211148
Client_25976,64.0,48098.3909238078,342.65679085883244,0.7662585850277928,1.4353835975174922,Pyrénées-Orientales,Llauro,42.55,2.744,317.0,325.0,False,Mobile App,PayPal,16.22567441145645
Client_26181,63.0,54127.210169730555,543.363013906419,1.2287095185678871,1.530992936134271,Bas-Rhin,Dambach,49.003,7.631,758.0,304.0,True,Mobile App,PayPal,10.916067939104627
Client_6609,27.0,40571.27695725789,27.611798711766255,1.1826309208625525,2.723191537902627,Côte-d'Or,Arnay-le-Duc,47.131,4.486,1370.0,379.0,False,Online,PayPal,10.008068246871833
Client_11840,54.0,70111.67350291116,795.9435182611596,2.4926776869352913,5.898096114176736,Haute-Garonne,Villeneuve-de-Rivière,43.122,0.666,1744.0,422.0,True,Online,Credit Card,18.272061577805232
Client_17774,19.0,40265.48168383364,55.517351900494276,2.4379290880060593,3.054397479178621,Manche,Catteville,49.356,-1.572,100.0,22.0,False,In-store,Credit Card,16.69063291959822
Client_26312,53.0,77845.18802023826,86.65541218702731,2.7090200721035624,4.3504535442450285,Bas-Rhin,Issenhausen,48.806,7.537,111.0,195.0,True,Online,Credit Card,5.667086997861828
Client_27293,61.0,38360.17314867431,190.0049303304994,1.7297334640869797,0.2708677059226481,Haute-Saône,Augicourt,47.774,5.896,173.0,260.0,True,In-store,PayPal,16.243972451933164
Client_16157,73.0,46777.342631331296,358.0560223809006,1.6848136115345893,2.8101787892948105,Haute-Loire,Sainte-Marguerite,45.206,3.591,39.0,722.0,True,Online,Credit Card,12.938725853648755
Client_12684,32.0,54184.19431809848,506.99345188897064,1.9713150649336955,3.888243580884298,Gironde,Saint-Ciers-sur-Gironde,45.292,-0.615,3081.0,9.0,False,In-store,PayPal,17.966286448833273
Client_25958,50.0,10891.74921757376,2594.777469288766,3.032378585824533,2.276218373443602,Pyrénées-Orientales,Fontpédrouse,42.51,2.178,120.0,2086.0,True,Online,Bank Transfer,16.217337419152706
Client_13922,39.0,18015.340725084392,985.6265138463937,1.4045516224542172,2.7861535406299947,Indre-et-Loire,Neuilly-le-Brignon,46.974,0.788,284.0,103.0,False,Mobile App,Bank Transfer,8.102803018519664
Client_19246,54.0,-17792.970819613325,156.48263136245984,0.9942060938273876,3.0589600318774854,Mayenne,Commer,48.241,-0.62,1287.0,132.0,False,Online,PayPal,16.869588073298786
Client_8209,68.0,5560.459607215311,1143.6187556852697,4.065194685604384,1.8146061765161807,Dordogne,Saint-Avit-Rivière,44.752,0.883,84.0,188.0,False,Online,Credit Card,22.459265363813596
Client_7336,56.0,15525.128958716561,1275.3132243305556,1.134681839353878,0.8205953688342085,Côtes-d'Armor,Le Faouët,48.684,-3.074,410.0,68.0,False,Online,Bank Transfer,10.059445808328498
Client_9942,45.0,40316.436739486155,445.6803884488488,2.199870184298377,3.909018362331728,Eure-et-Loir,Bérou-la-Mulotière,48.746,1.049,341.0,164.0,True,Mobile App,Bank Transfer,14.961164161046757
Client_6584,34.0,63423.06234685167,107.16369322814103,1.1788968178008497,2.190586874530355,Corrèze,Vignols,45.319,1.39,531.0,297.0,True,In-store,Bank Transfer,11.03481985166103
Client_13424,72.0,63227.10413425743,24.176383916696835,1.4726903846063182,0.30698699997818113,Ille-et-Vilaine,Maen Roch,48.411,-1.365,5097.0,108.0,True,Online,Bank Transfer,21.209483533698993
Client_34932,34.0,24041.850516150815,202.14837073081048,2.924574278331608,1.5340819660812732,Guyane,Saül,3.623,-53.21,317.0,149.0,False,Online,Bank Transfer,15.799768985905914
Client_8240,76.0,63543.138231721976,41.060712852056184,1.9921158450599552,4.295901466401576,Dordogne,Saint-Georges-de-Montclard,44.932,0.621,276.0,132.0,False,Mobile App,Credit Card,14.70732902086707
Client_22665,66.0,21063.53107018878,1391.8114179591207,2.3440028760760043,1.9393322805574433,Oise,Étavigny,49.119,2.98,168.0,130.0,False,In-store,Credit Card,15.779021645295021
Client_1170,60.0,32374.50530105592,663.37816278624,1.531175392130944,0.705842772849099,Aisne,Villers-le-Sec,49.778,3.502,251.0,111.0,False,Online,Bank Transfer,22.23244680525137
Client_23305,70.0,47215.68638429553,201.60299617070774,0.7627815210173897,4.058345227977357,Orne,Macé,48.638,0.137,418.0,180.0,True,Mobile App,PayPal,14.846883370631826
Client_4200,36.0,27586.162041870684,293.70427138628816,1.2104492792746309,0.7822419770204148,Aveyron,Saint-André-de-Vézines,44.152,3.259,133.0,838.0,False,In-store,Bank Transfer,12.997416338067085
Client_9049,48.0,76125.24905947957,1203.0265929465343,0.14226848238148393,1.1192701608901634,Drôme,Chauvac-Laux-Montaux,44.321,5.526,43.0,976.0,True,Online,PayPal,10.665978504461044
Client_14961,44.0,48052.42218452984,496.05618405621675,1.4756905847179067,6.528551252263829,Jura,Saint-Maur,46.616,5.59,221.0,572.0,True,In-store,Credit Card,16.916215556423264
Client_16118,29.0,26067.223827682777,1836.3732164265673,1.3369274896639916,2.0883004777903214,Haute-Loire,Saint-Arcons-d'Allier,45.069,3.548,194.0,708.0,False,Mobile App,Credit Card,19.741942599468025
Client_10616,33.0,15643.41357962066,1489.6190499837624,1.440965806642124,2.0676404403151833,Corse-du-Sud,Murzo,42.168,8.827,100.0,654.0,True,In-store,PayPal,10.748164467258052
Client_11541,24.0,36808.6491173873,1184.9135216959505,1.7727380029447986,5.929082005368028,Haute-Garonne,Lautignac,43.382,1.057,254.0,291.0,True,In-store,Credit Card,13.601473626133776
Client_25871,48.0,-13979.664238738014,1888.7303130889595,2.9762670597596745,1.342760306859744,Hautes-Pyrénées,Villelongue,42.954,-0.062,368.0,1434.0,True,Online,Credit Card,19.74822830933062
Client_22535,28.0,34275.396264065916,532.1587430033044,0.5265684210044709,2.904081339852567,Oise,Boullarre,49.129,3.004,207.0,124.0,True,Mobile App,Bank Transfer,17.486316013717627
Client_13171,23.0,65973.93483430942,239.4979621031972,2.444665418456047,5.447034964287229,Hérault,Vendémian,43.581,3.562,1151.0,143.0,True,In-store,Credit Card,16.147339042506914
Client_33793,24.0,50638.96242904818,458.2484271068899,1.185401988367984,0.4711871558301448,Vosges,Vecoux,47.979,6.637,856.0,615.0,False,Online,PayPal,13.802126489691421
Client_13921,78.0,40462.55326983816,82.34485565905474,3.1724806489207893,1.3680369611519376,Indre-et-Loire,Neuillé-Pont-Pierre,47.548,0.547,2183.0,113.0,False,Online,Credit Card,19.75635249672007
Client_7484,60.0,48588.32618653809,536.3604051877364,2.539582649793044,0.612596813194056,Côtes-d'Armor,Ploulec'h,48.718,-3.504,1578.0,75.0,False,In-store,Credit Card,18.025836188630596
Client_30278,68.0,99776.21458714083,242.67620775689065,1.1500782172046595,4.399895283206833,Seine-et-Marne,Messy,48.966,2.7,1213.0,78.0,False,Online,Bank Transfer,14.993987663930698
Client_6031,55.0,2478.1645584506323,772.1828463821224,1.4350880615255728,2.262696179858786,Cher,Arcomps,46.676,2.432,274.0,206.0,True,Online,Bank Transfer,14.348172905876382
Client_10176,50.0,36641.311612241814,734.5600053337339,1.2278946354867255,3.1460021538233858,Eure-et-Loir,La Puisaye,48.609,0.958,251.0,226.0,False,Mobile App,PayPal,12.726987249007061
Client_24878,54.0,47574.84335806734,340.21989888776903,1.93674595187335,1.106520785485154,Pyrénées-Atlantiques,Ainhice-Mongelos,43.203,-1.155,169.0,283.0,True,Mobile App,Credit Card,17.555519198528373
Client_15614,45.0,46731.31250027061,405.55967839105966,1.1861354396414951,1.9361547724180124,Loir-et-Cher,Villefranche-sur-Cher,47.293,1.772,2635.0,101.0,False,Online,PayPal,11.250963135677535
Client_16364,60.0,24954.60073573592,99.6786543564927,2.958578267756921,0.4655711430748577,Loire-Atlantique,Saint-Hilaire-de-Clisson,47.062,-1.307,2378.0,39.0,True,Mobile App,Credit Card,9.515447784652519
Client_7077,43.0,46160.372634301326,774.138714373071,1.0184243183941697,2.1002177913977134,Côte-d'Or,Pouillenay,47.507,4.469,574.0,307.0,False,Mobile App,Bank Transfer,17.582543045731384
Client_14489,58.0,45355.21843082382,176.75106141095569,1.3176761446542458,2.4056293646891262,Isère,Le Touvet,45.359,5.951,3076.0,387.0,True,Mobile App,PayPal,14.042699108744344
Client_7088,34.0,19500.629976540815,830.7983913871925,2.064386617205233,0.7557435161155702,Côte-d'Or,Quemigny-sur-Seine,47.663,4.668,101.0,373.0,True,Online,Bank Transfer,12.704491850289022
Client_29422,49.0,51376.00727304174,826.0159659185142,0.9858170241437265,4.418498963704259,Seine-Maritime,Bures-en-Bray,49.78,1.336,329.0,103.0,True,Mobile App,Bank Transfer,19.214798202823935
Client_24959,77.0,97117.77457870518,549.0916756463563,1.243485887484779,2.174705664475584,Pyrénées-Atlantiques,Bassillon-Vauzé,43.455,-0.077,66.0,244.0,True,Online,PayPal,16.40659064263294
Client_15930,41.0,10164.566567397778,1012.8738934403295,1.7146313374408686,4.260974740813381,Loire,Unias,45.605,4.227,430.0,356.0,True,Mobile App,Credit Card,17.862048490612626
Client_2252,20.0,8698.082657610788,90.26710090461677,2.0984837550428272,0.9764578220762785,Ardèche,Saint-Étienne-de-Fontbellon,44.6,4.383,2868.0,243.0,False,Mobile App,PayPal,13.737418436265477
Client_33123,30.0,40540.43887046611,974.8403746448037,2.486220026081833,6.37526782917092,Vienne,Vouneuil-sur-Vienne,46.718,0.54,2281.0,98.0,True,In-store,Credit Card,26.185505044723897
Client_12023,26.0,59203.30311696317,847.5016994608832,1.332905903489056,5.834176401222521,Gers,Laguian-Mazous,43.421,0.259,247.0,275.0,False,Online,Bank Transfer,16.099979629900723
Client_1698,29.0,-6840.999764249945,2187.560957067788,1.4030547920027392,3.3397154809053515,Alpes-de-Haute-Provence,Verdaches,44.265,6.342,61.0,1336.0,False,Mobile App,Bank Transfer,14.442181540737968
Client_10818,40.0,30930.29521883986,89.06610479887581,1.435611565437217,2.6507132936287716,Haute-Corse,Pietra-di-Verde,42.299,9.451,100.0,515.0,True,Online,Bank Transfer,16.214847744608356
Client_27857,79.0,16075.482657779028,343.70235056493766,0.8219590848965859,1.0731718724937167,Saône-et-Loire,Brienne,46.557,5.02,473.0,182.0,True,Mobile App,PayPal,14.932859270682654
Client_17661,48.0,24117.893698891865,60.07222433050069,2.778105109303944,2.7480384665582136,Maine-et-Loire,Saint-Léger-sous-Cholet,47.095,-0.914,3072.0,112.0,False,Mobile App,Credit Card,15.125563070726379
Client_21684,45.0,23287.671901503694,765.9729659021654,1.3587352163522475,1.423349625216118,Nièvre,Onlay,46.964,3.895,159.0,366.0,True,In-store,PayPal,11.017509399623709
Client_2210,41.0,52311.57482442845,1631.3796027474434,1.3511215050443415,0.07848281254657508,Ardèche,Ribes,44.495,4.207,325.0,362.0,True,Online,PayPal,13.05161182085285
Client_25039,42.0,1409.542703411593,1042.6934381107098,2.3811694943757447,6.418812300371372,Pyrénées-Atlantiques,Castillon (Canton d'Arthez-de-Béarn),43.466,-0.576,339.0,155.0,True,In-store,Credit Card,25.83915532536909
Client_9987,68.0,43075.252106207074,985.9818737867975,1.7019037824036616,1.1982877954349629,Eure-et-Loir,Châteauneuf-en-Thymerais,48.581,1.242,2620.0,204.0,False,Mobile App,Bank Transfer,6.304646594705618
Client_31449,53.0,46745.933681078895,21.443459182091573,2.5797720455561466,3.2934916946550574,Somme,Lahoussoye,49.952,2.483,451.0,105.0,False,Mobile App,Bank Transfer,10.154433681564228
Client_27212,58.0,47226.102017291036,897.3057017593882,1.5346127016020874,3.7424771065219202,Rhône,Vauxrenard,46.209,4.642,317.0,577.0,False,Online,PayPal,17.27342757883067
Client_32258,74.0,51461.914518105346,350.5294589628111,1.0606652488282668,5.6034551388706175,Tarn-et-Garonne,Saint-Aignan,44.018,1.075,393.0,82.0,False,Mobile App,Credit Card,9.10779998131061
Client_26447,39.0,53622.18602011364,726.4210318958783,1.7166968249614774,1.6673179855451297,Bas-Rhin,La Petite-Pierre,48.858,7.321,612.0,307.0,False,In-store,Bank Transfer,8.35516685522395
Client_6434,65.0,28043.94647648204,846.2496962541438,1.0980753691634562,3.620102502601778,Corrèze,Masseret,45.54,1.521,658.0,444.0,True,Mobile App,PayPal,5.622463847994974
Client_6765,38.0,35966.908847362436,572.2803289779555,1.0827920639038435,4.4418236111051925,Côte-d'Or,Clomot,47.19,4.487,128.0,387.0,True,Mobile App,Bank Transfer,17.41972341872927
Client_15633,77.0,97379.48275011571,1299.1978309671076,2.0314399097373323,0.3374085377701723,Loire,Ailleux,45.803,3.944,182.0,621.0,False,Online,PayPal,18.95672738504751
Client_9818,44.0,22966.217396292126,168.5967167499824,0.8823248305990213,2.8999704327955094,Eure,Saint-Pierre-de-Cormeilles,49.238,0.382,584.0,121.0,True,In-store,Bank Transfer,15.429899211482544
Client_538,50.0,57933.11578766869,493.3087442141275,0.9140624841129367,0.3106008464424823,Aisne,Cerseuil,49.323,3.522,87.0,125.0,False,Online,Bank Transfer,16.071355103825507
Client_18414,27.0,9538.422963618383,205.46712619358215,1.6023220910825,5.1148189079200925,Marne,Hauteville,48.638,4.768,237.0,127.0,False,In-store,PayPal,23.482881906251734
Client_18359,53.0,25238.77734429995,77.0568409248744,0.6449025280854398,1.475523033346259,Marne,Élise-Daucourt,49.047,4.867,82.0,171.0,False,Online,Bank Transfer,9.642946959399186
Client_11204,44.0,-3081.465468908819,64.67730205530938,0.3807077128351553,0.0035730214664795312,Gard,Saint-Sébastien-d'Aigrefeuille,44.107,3.994,508.0,340.0,False,Mobile App,Bank Transfer,12.045869390789738
Client_28104,66.0,33581.34897946131,390.5900626077929,2.2498119354019557,0.5435607523331942,Saône-et-Loire,Montret,46.679,5.11,763.0,203.0,True,Online,Bank Transfer,10.691440732079444
Client_22690,70.0,36442.7809150235,843.4540598193616,1.636750351032054,0.6533091811041403,Oise,Fouquenies,49.466,2.041,413.0,105.0,True,Mobile App,Credit Card,17.895939168295868
Client_22323,31.0,9990.91060687499,58.789209831085685,1.4975784821746907,4.07017629395304,Nord,Saint-Saulve,50.371,3.555,11117.0,34.0,False,Mobile App,Bank Transfer,19.70471420421335
Client_28079,76.0,14216.812038261365,837.7269205423779,2.054834718610536,0.18037788624187545,Saône-et-Loire,Mellecey,46.811,4.728,1312.0,225.0,False,Mobile App,PayPal,15.167500635628954
Client_4071,49.0,47793.59622219985,62.85907080981667,2.210296873072672,3.5998391656287407,Aveyron,Comprégnac,44.083,2.961,223.0,497.0,True,In-store,PayPal,15.41339132642249
Client_11912,21.0,36926.600903100785,412.6186085106999,1.6339242918081713,5.423095776962479,Gers,Brugnens,43.841,0.726,254.0,151.0,False,In-store,PayPal,17.016538019659386
Client_11402,30.0,55422.30608641803,311.6564885399838,0.9101891048940955,4.213886979936504,Haute-Garonne,Ciadoux,43.26,0.737,219.0,321.0,True,Mobile App,PayPal,14.857012609783354
Client_28061,18.0,39640.25272805987,465.1605516072719,1.4100803851867898,6.66370140614749,Saône-et-Loire,Maltat,46.681,3.816,282.0,270.0,True,In-store,Bank Transfer,21.764424930732993
Client_28641,25.0,26448.31285271722,128.838860392779,1.3622824522268757,4.125181564794221,Sarthe,Saint-Ouen-en-Belin,47.833,0.211,1324.0,60.0,True,In-store,PayPal,14.709134724090063
Client_10434,50.0,53616.3185410435,638.9682710537816,0.9146130735382523,2.775177837377611,Finistère,Plonévez-du-Faou,48.252,-3.825,2152.0,134.0,False,Mobile App,PayPal,18.189892374614388
Client_29406,74.0,63724.10962516186,180.81217695860227,0.2612014574193875,1.2227127654934877,Seine-Maritime,Bouelles,49.716,1.497,272.0,170.0,False,Mobile App,Bank Transfer,11.806188311753566
Client_27145,73.0,47567.29273677679,1376.9818191204681,1.5701939785745225,5.685616685472111,Rhône,Sourcieux-les-Mines,45.805,4.623,2094.0,421.0,False,Mobile App,PayPal,5.665355179700484
Client_10312,50.0,40322.75649187402,30.14134812031422,0.8920216661331104,0.03841229996169826,Finistère,Concarneau,47.871,-3.919,20607.0,50.0,False,Mobile App,PayPal,21.945536960684766
Client_15904,30.0,52348.24751528368,976.6777132092639,2.084085878442368,5.0810990668239775,Loire,Saint-Romain-les-Atheux,45.356,4.376,942.0,841.0,True,In-store,Credit Card,23.970342515900338
Client_6134,48.0,56983.72576394909,1009.0238865410984,0.5918679774187112,2.049053063375313,Cher,Ids-Saint-Roch,46.707,2.241,278.0,191.0,False,Online,Bank Transfer,12.18331471936589
Client_15429,47.0,-8994.648612650773,747.9850241852029,3.298275878465156,2.915822550633263,Loir-et-Cher,Danzé,47.892,1.028,671.0,153.0,True,Online,Credit Card,13.662315215697413
Client_26599,24.0,19442.517736995203,475.8503662493807,1.2066729697581096,7.136531730298131,Bas-Rhin,Wingen-sur-Moder,48.923,7.371,1574.0,280.0,False,Online,Bank Transfer,17.03976636577213
Client_4578,45.0,16045.361332323298,274.48338622361257,0.9230885288641402,3.593165698131646,Calvados,Démouville,49.178,-0.269,3008.0,20.0,False,Online,PayPal,12.751433591506983
Client_19905,55.0,7528.028344774707,800.3754313980576,0.9447334958793657,0.2907742367586721,Meurthe-et-Moselle,Saint-Supplet,49.382,5.736,151.0,294.0,False,Online,Credit Card,6.767888217994846
Client_1043,75.0,13804.249135367394,560.6415080763711,2.637137098806556,0.6834609552883252,Aisne,Saint-Gobain,49.596,3.379,2315.0,135.0,True,Mobile App,Credit Card,21.905848314164196
Client_13511,41.0,785.0442197936121,186.44291250387383,1.3757890175112777,5.084643217864772,Ille-et-Vilaine,Vignoc,48.249,-1.784,2202.0,106.0,True,In-store,Bank Transfer,21.911542862844158
Client_17777,21.0,20941.98327955432,474.6175117120892,2.1100884544701612,4.118948164599361,Manche,Cérences,48.916,-1.436,1761.0,54.0,True,Online,PayPal,15.36368515671897
Client_24659,21.0,41584.899927495535,1146.8615901581072,3.4213545411645785,7.118947643223472,Puy-de-Dôme,Orcival,45.684,2.842,245.0,1114.0,False,Mobile App,Credit Card,20.927570954584127
Client_19437,51.0,37419.47717230656,420.76172656052864,3.558384309398745,2.7143602507428826,Meurthe-et-Moselle,Amance,48.754,6.28,357.0,265.0,True,Online,Credit Card,24.702737697863434
Client_5995,62.0,48987.53920938183,349.6444744484317,,0.3912290801347149,Charente-Maritime,Vanzac,45.358,-0.304,186.0,69.0,True,In-store,PayPal,17.059357943914065
Client_10383,60.0,38217.93427221248,365.64837156286495,1.5517669538252097,2.1061158821641053,Finistère,Lannédern,48.301,-3.896,311.0,144.0,True,In-store,PayPal,13.700208499756688
Client_2398,68.0,20651.863494969402,122.07758655823744,0.6757109495598437,2.0544250844682157,Ardennes,Auvillers-les-Forges,49.863,4.358,896.0,270.0,False,In-store,Bank Transfer,15.340986887791288
Client_3721,41.0,40932.6947589616,346.41708661232883,2.9737261167887103,0.9802622719665175,Aude,La Force,43.194,2.094,258.0,185.0,False,In-store,Credit Card,14.000226583851594
Client_22375,62.0,33510.731158607494,421.29139058298693,1.251202302313553,0.24531720688681857,Nord,Tilloy-lez-Cambrai,50.196,3.22,696.0,68.0,True,Online,PayPal,9.723615625347318
Client_669,22.0,26692.678534314164,325.7626844328407,1.175052519943343,2.6945654294186054,Aisne,Essigny-le-Grand,49.776,3.277,1054.0,98.0,False,In-store,Credit Card,10.246690679977924
Client_1726,50.0,20762.307407325316,1177.2390483347176,2.928960738348045,4.380711372167757,Hautes-Alpes,Buissard,44.657,6.142,202.0,1152.0,True,Online,Credit Card,19.344087041987564
Client_13874,29.0,59490.88465384694,683.1908278939607,1.4016672847033846,5.628907208561491,Indre-et-Loire,Hommes,47.424,0.297,866.0,85.0,True,Online,Bank Transfer,16.42509730439501
Client_29500,40.0,57501.88442549085,671.1485886523751,1.4398153843918142,1.1258551093519573,Seine-Maritime,Elbeuf-en-Bray,49.488,1.643,393.0,129.0,False,Mobile App,Bank Transfer,18.654599043918537
Client_18531,38.0,28091.647316686365,205.45474707925024,2.1599566657935783,3.581556271790356,Marne,Ormes,49.237,3.958,499.0,94.0,False,In-store,PayPal,12.53907663631117
Client_16621,69.0,30789.167230684565,1103.7652009794995,0.9860378426258632,3.7901954191148293,Loiret,Le Moulinet-sur-Solin,47.838,2.627,120.0,145.0,True,Online,Bank Transfer,13.851503216093871
Client_29839,76.0,17542.09143095605,382.1680657548166,1.0828443308251228,0.29866712634459835,Seine-Maritime,Saint-Germain-sur-Eaulne,49.766,1.511,222.0,175.0,True,Online,Bank Transfer,17.543908580312216
Client_21520,72.0,24410.29459771126,724.4328111493221,1.900204535716437,0.009774752670932862,Nièvre,,47.48,3.415,352.0,238.0,False,In-store,Bank Transfer,11.154447455181277
Client_34762,54.0,46257.64115997403,629.6017734161576,0.7253197617948131,0.4395219634193408,Val-d'Oise,Lassy,49.097,2.446,190.0,85.0,False,Online,PayPal,15.606295314385177
Client_27607,35.0,39042.56325922952,112.40470219978903,0.8879246958321731,1.8468682750323722,Haute-Saône,Motey-Besuche,47.305,5.665,90.0,251.0,False,Online,Bank Transfer,12.389827102540341
Client_23469,26.0,32685.329935682155,116.69829818439561,2.5585646926319585,6.827558885255437,Orne,Sainte-Scolasse-sur-Sarthe,48.577,0.393,582.0,190.0,True,Online,Credit Card,15.74942671250242
Client_22386,21.0,39088.34496121336,205.33320614769895,1.0630854056863734,1.2940225988058316,Nord,Vendegies-sur-Écaillon,50.261,3.509,1118.0,75.0,False,Mobile App,PayPal,18.847274710121656
Client_14441,18.0,21558.43197449288,26.445122732672587,1.2689699100293819,5.013538932490748,Isère,Saint-Savin,45.627,5.311,4264.0,303.0,True,Online,Bank Transfer,13.40468618572684
Client_18000,37.0,38650.53669045216,227.89827706484812,2.1165632315028566,0.1904856626749103,Manche,Roncey,48.99,-1.333,784.0,87.0,False,Mobile App,Bank Transfer,12.562083271442852
Client_3659,64.0,50604.33284421304,445.731321638466,2.77012671763129,1.1958412220149628,Aude,Cépie,43.103,2.245,609.0,223.0,True,Online,Bank Transfer,14.958979312178705
Client_15818,48.0,51127.77197677719,528.2291704743799,1.7082546193514099,3.1667773924518796,Loire,Sainte-Agathe-en-Donzy,45.838,4.306,117.0,662.0,False,In-store,PayPal,19.98927055426497
Client_11562,27.0,46200.20873423657,1803.3790995591585,2.672303871285842,2.26197275830247,Haute-Garonne,Loudet,43.147,0.57,197.0,497.0,False,In-store,Credit Card,12.716527500668011
Client_9151,25.0,18312.522546562806,1210.9462910097611,2.051621446650113,0.7968601535658424,Drôme,Montfroc,44.174,5.638,92.0,1028.0,False,Mobile App,PayPal,15.24160281225851
Client_19558,40.0,33261.659347472996,1481.608101735122,1.6202851245123269,1.4208791506613956,Meurthe-et-Moselle,Coincourt,48.701,6.611,114.0,256.0,False,In-store,PayPal,10.019137144026518
Client_25694,31.0,1133.7294652814448,159.08294684723296,3.6765678671316673,4.050635677166721,Hautes-Pyrénées,Luquet,43.265,-0.12,419.0,385.0,False,In-store,Credit Card,18.370099471535354
Client_26848,39.0,32586.930433346388,197.19667726259226,0.47191737896810426,0.6252090590590553,Haut-Rhin,Oberhergheim,47.968,7.396,1296.0,202.0,False,Mobile App,Bank Transfer,13.072035624831717
Client_14049,27.0,16316.56636361036,1023.8462748003839,1.6498687943760235,8.919050665026258,Isère,Les Avenières Veyrins-Thuellin,45.635,5.563,7740.0,226.0,True,Online,Credit Card,12.414395107695913
Client_20550,55.0,43769.65139823257,420.42272950971056,0.953465190560336,0.8428044745854946,Morbihan,Caudan,47.81,-3.34,7074.0,45.0,False,Online,Credit Card,16.27140831143744
Client_11997,69.0,38926.982484814675,1277.371293665842,3.0704720918460295,2.507044212151059,Gers,Haulies,43.556,0.668,157.0,241.0,True,Online,Credit Card,13.18594168269205
Client_2765,52.0,31748.550875468136,1176.9245142779282,2.5303472475567643,1.2284309250243082,Ardennes,Le Thour,49.538,4.093,368.0,95.0,False,Online,Credit Card,12.442806482561835
Client_223,51.0,47425.282605963126,80.04974332696077,1.7797200699439233,0.2476420846027133,Ain,Montmerle-sur-Saône,46.079,4.76,3792.0,185.0,True,In-store,Bank Transfer,9.216990145999674
Client_6641,22.0,44815.45655513489,858.6211346704287,1.417304681006406,5.809675026190701,Côte-d'Or,Beaunotte,47.678,4.708,14.0,370.0,True,Online,Bank Transfer,11.730954317123734
Client_34842,37.0,25748.312829609007,542.2803965465711,0.7351828389092027,1.6989997403669184,Val-d'Oise,Viarmes,49.126,2.369,5386.0,83.0,True,Mobile App,PayPal,15.677535697409198
Client_16403,48.0,46910.44126757243,317.0488270251112,1.8302972651013096,2.864940078099411,Loire-Atlantique,Treffieux,47.62,-1.537,956.0,30.0,True,In-store,Bank Transfer,21.598760489409106
Client_34647,26.0,71539.27599830067,376.82435110910603,1.8839791974473972,3.73256204307342,Val-de-Marne,Noiseau,48.775,2.549,4610.0,96.0,False,In-store,PayPal,18.60409120101882
Client_13758,26.0,41413.866992073046,110.55983138146644,1.7712696276306934,4.119914517715417,Indre,Vineuil,46.902,1.636,1239.0,166.0,False,In-store,Credit Card,13.896323714177326
Client_31898,50.0,92667.44348448154,424.55448116848197,2.8889895480768626,4.722942045433847,Tarn,Jonquières,43.65,2.127,441.0,195.0,False,Mobile App,Credit Card,16.463759269571028
Client_26432,45.0,33753.16439502158,496.96925887676804,1.77315865858264,4.773189615584341,Bas-Rhin,Oermingen,48.999,7.128,1114.0,262.0,True,Online,PayPal,14.601887023228683
Client_9509,23.0,50751.40267242567,370.3379394769954,1.9600961214985493,2.5409093687685775,Eure,Émalleville,49.094,1.158,475.0,136.0,True,Online,Credit Card,9.932668082621431
Client_7537,18.0,33168.253824775515,602.2325838530314,1.7567880417058266,0.8509520199766634,Côtes-d'Armor,Saint-Cast-le-Guildo,48.628,-2.264,3334.0,49.0,False,In-store,PayPal,8.665150233743264
Client_29118,76.0,96488.56810533126,1270.097009209834,1.4927194480359063,1.3668044568528617,Haute-Savoie,Jonzier-Épagny,46.07,5.99,835.0,651.0,True,Mobile App,PayPal,12.677462998919124
Client_32071,64.0,56468.97463832706,,1.7484410469229055,1.2731886384506508,Tarn,Soual,43.555,2.115,2638.0,183.0,False,Mobile App,PayPal,15.775586654694827
